{
"type": "FeatureCollection",
"name": "NSDI_Zambia_Operational_School_Points_and_Names%2C_Version_01_(Beta)",
"crs": { "type": "name", "properties": { "name": "urn:ogc:def:crs:OGC:1.3:CRS84" } },
"features": [
{ "type": "Feature", "properties": { "FID": 1, "GlobalID": "35LNG902024_001", "Type": "School", "SubType": "Community School", "Name": "Kamuchanga Community School", "Orig_Name": "kamuchanga comm school", "Source": "ZamStats", "Province": "Copperbelt", "Prov_Code": 102, "District": "Chingola", "Distr_Code": 102002, "LAT": -12.6409000001, "LONG": 27.831090926800002, "Data_year": "2010" }, "geometry": { "type": "Point", "coordinates": [ 27.831090926804901, -12.6409000001349 ] } },
{ "type": "Feature", "properties": { "FID": 2, "GlobalID": "35LNF881983_001", "Type": "School", "SubType": "Community School", "Name": "Kakalo Community School", "Orig_Name": "kakalo comm school", "Source": "ZamStats", "Province": "Copperbelt", "Prov_Code": 102, "District": "Chingola", "Distr_Code": 102002, "LAT": -12.677809999799999, "LONG": 27.811750411799999, "Data_year": "2010" }, "geometry": { "type": "Point", "coordinates": [ 27.811750411752101, -12.677809999831601 ] } },
{ "type": "Feature", "properties": { "FID": 3, "GlobalID": "35LNF931965_003", "Type": "School Affiliated Infrastructure", "SubType": "Teachers Compound", "Name": "Bwingimilonga Teachers Compound", "Orig_Name": "teachers camp", "Source": "ZamStats", "Province": "Copperbelt", "Prov_Code": 102, "District": "Chingola", "Distr_Code": 102002, "LAT": -12.69404, "LONG": 27.857969284100001, "Data_year": "2010" }, "geometry": { "type": "Point", "coordinates": [ 27.857969284055301, -12.6940400000459 ] } },
{ "type": "Feature", "properties": { "FID": 4, "GlobalID": "35LPG025075_002", "Type": "School", "SubType": "School", "Name": "Amano Christian School", "Orig_Name": "amano christian sch", "Source": "ZamStats", "Province": "Copperbelt", "Prov_Code": 102, "District": "Chingola", "Distr_Code": 102002, "LAT": -12.593909999599999, "LONG": 27.944530487000002, "Data_year": "2010" }, "geometry": { "type": "Point", "coordinates": [ 27.944530486992399, -12.5939099996467 ] } },
{ "type": "Feature", "properties": { "FID": 5, "GlobalID": "35LNG641155_002", "Type": "School", "SubType": "Basic School", "Name": "Mambili Basic School", "Orig_Name": "mambili basic", "Source": "ZamStats", "Province": "Copperbelt", "Prov_Code": 102, "District": "Lufwanyama", "Distr_Code": 102006, "LAT": -12.5229499999, "LONG": 27.589990615600001, "Data_year": "2010" }, "geometry": { "type": "Point", "coordinates": [ 27.5899906155745, -12.522949999942499 ] } },
{ "type": "Feature", "properties": { "FID": 6, "GlobalID": "35LNG690187_002", "Type": "School", "SubType": "Basic School", "Name": "Jackson phiri Basic School", "Orig_Name": "jackson phiri basic", "Source": "ZamStats", "Province": "Copperbelt", "Prov_Code": 102, "District": "Chingola", "Distr_Code": 102002, "LAT": -12.494119999600001, "LONG": 27.635650634800001, "Data_year": "2010" }, "geometry": { "type": "Point", "coordinates": [ 27.635650634769, -12.494119999638199 ] } },
{ "type": "Feature", "properties": { "FID": 7, "GlobalID": "35LNG726217_002", "Type": "School", "SubType": "Pre-School", "Name": "Pre-School", "Orig_Name": "pre school", "Source": "ZamStats", "Province": "Copperbelt", "Prov_Code": 102, "District": "Chingola", "Distr_Code": 102002, "LAT": -12.466699999599999, "LONG": 27.668230057100001, "Data_year": "2010" }, "geometry": { "type": "Point", "coordinates": [ 27.668230057071501, -12.466699999605201 ] } },
{ "type": "Feature", "properties": { "FID": 8, "GlobalID": "35LNG748152_002", "Type": "School", "SubType": "Basic School", "Name": "Ipafu Basic School", "Orig_Name": "ipafu basic", "Source": "ZamStats", "Province": "Copperbelt", "Prov_Code": 102, "District": "Chingola", "Distr_Code": 102002, "LAT": -12.5251099997, "LONG": 27.689140319900002, "Data_year": "2010" }, "geometry": { "type": "Point", "coordinates": [ 27.6891403198699, -12.5251099997267 ] } },
{ "type": "Feature", "properties": { "FID": 9, "GlobalID": "35LPF646650_001", "Type": "School Affiliated Infrastructure", "SubType": "Girls Dormitory", "Name": "Ndola Girls Dormitory", "Orig_Name": "ndola girls", "Source": "ZamStats", "Province": "Copperbelt", "Prov_Code": 102, "District": "Kitwe", "Distr_Code": 102010, "LAT": -12.9760600004, "LONG": 28.518199920899999, "Data_year": "2010" }, "geometry": { "type": "Point", "coordinates": [ 28.5181999208897, -12.9760600003686 ] } },
{ "type": "Feature", "properties": { "FID": 10, "GlobalID": "35LPF673767_001", "Type": "School", "SubType": "Basic School", "Name": "Kaniki Basic School", "Orig_Name": "kaniki basic", "Source": "ZamStats", "Province": "Copperbelt", "Prov_Code": 102, "District": "Ndola", "Distr_Code": 102010, "LAT": -12.870289999800001, "LONG": 28.5424995423, "Data_year": "2010" }, "geometry": { "type": "Point", "coordinates": [ 28.542499542320101, -12.8702899997836 ] } },
{ "type": "Feature", "properties": { "FID": 11, "GlobalID": "35LPF727662_002", "Type": "School", "SubType": "Basic School", "Name": "Dola hill Basic School", "Orig_Name": "dola hill basi", "Source": "ZamStats", "Province": "Copperbelt", "Prov_Code": 102, "District": "Kitwe", "Distr_Code": 102010, "LAT": -12.9643299999, "LONG": 28.592599868800001, "Data_year": "2010" }, "geometry": { "type": "Point", "coordinates": [ 28.592599868789002, -12.9643299999295 ] } },
{ "type": "Feature", "properties": { "FID": 12, "GlobalID": "35LPF698655_001", "Type": "School", "SubType": "School", "Name": "Kwacha School", "Orig_Name": "kwacha school", "Source": "ZamStats", "Province": "Copperbelt", "Prov_Code": 102, "District": "Kitwe", "Distr_Code": 102010, "LAT": -12.970970000399999, "LONG": 28.565799713000001, "Data_year": "2010" }, "geometry": { "type": "Point", "coordinates": [ 28.565799712986401, -12.970970000365201 ] } },
{ "type": "Feature", "properties": { "FID": 13, "GlobalID": "35LPF703650_001", "Type": "School", "SubType": "Community School", "Name": "Omni Community School", "Orig_Name": "omni com shc", "Source": "ZamStats", "Province": "Copperbelt", "Prov_Code": 102, "District": "Kitwe", "Distr_Code": 102010, "LAT": -12.9751800003, "LONG": 28.570199966299999, "Data_year": "2010" }, "geometry": { "type": "Point", "coordinates": [ 28.570199966255501, -12.975180000256801 ] } },
{ "type": "Feature", "properties": { "FID": 14, "GlobalID": "35LPF654710_001", "Type": "School Affiliated Infrastructure", "SubType": "School Compound", "Name": "Wlw School Compound", "Orig_Name": "school comp", "Source": "ZamStats", "Province": "Copperbelt", "Prov_Code": 102, "District": "Kitwe", "Distr_Code": 102010, "LAT": -12.921340000400001, "LONG": 28.5254993438, "Data_year": "2010" }, "geometry": { "type": "Point", "coordinates": [ 28.5254993438197, -12.921340000440599 ] } },
{ "type": "Feature", "properties": { "FID": 15, "GlobalID": "35LPF782742_001", "Type": "School Affiliated Infrastructure", "SubType": "School Compound", "Name": "Minsundu School Compound", "Orig_Name": "school cmpnd", "Source": "ZamStats", "Province": "Copperbelt", "Prov_Code": 102, "District": "Ndola", "Distr_Code": 102010, "LAT": -12.891639999600001, "LONG": 28.642400741700001, "Data_year": "2010" }, "geometry": { "type": "Point", "coordinates": [ 28.6424007417009, -12.8916399995863 ] } },
{ "type": "Feature", "properties": { "FID": 16, "GlobalID": "35LPF308511_001", "Type": "School", "SubType": "School", "Name": "Mansansa School", "Orig_Name": "mansansa sch", "Source": "ZamStats", "Province": "Copperbelt", "Prov_Code": 102, "District": "Luanshya", "Distr_Code": 102005, "LAT": -13.1029799996, "LONG": 28.207099915000001, "Data_year": "2010" }, "geometry": { "type": "Point", "coordinates": [ 28.207099915029101, -13.1029799996272 ] } },
{ "type": "Feature", "properties": { "FID": 17, "GlobalID": "35LPF677514_001", "Type": "School", "SubType": "Community School", "Name": "Roma Community School", "Orig_Name": "roma comm sch", "Source": "ZamStats", "Province": "Copperbelt", "Prov_Code": 102, "District": "Ndola", "Distr_Code": 102010, "LAT": -13.098940000400001, "LONG": 28.5475997928, "Data_year": "2010" }, "geometry": { "type": "Point", "coordinates": [ 28.547599792796198, -13.098940000380701 ] } },
{ "type": "Feature", "properties": { "FID": 18, "GlobalID": "35LPF721593_001", "Type": "School Affiliated Infrastructure", "SubType": "Teachers Compound", "Name": "Kafubu Teachers Compound", "Orig_Name": "tcompound", "Source": "ZamStats", "Province": "Copperbelt", "Prov_Code": 102, "District": "Ndola", "Distr_Code": 102010, "LAT": -13.0268899999, "LONG": 28.587400436599999, "Data_year": "2010" }, "geometry": { "type": "Point", "coordinates": [ 28.5874004365809, -13.0268899998736 ] } },
{ "type": "Feature", "properties": { "FID": 19, "GlobalID": "35LPF626753_002", "Type": "School", "SubType": "Community School", "Name": "Kam Community School", "Orig_Name": "comm sch kam", "Source": "ZamStats", "Province": "Copperbelt", "Prov_Code": 102, "District": "Kitwe", "Distr_Code": 102010, "LAT": -12.88264, "LONG": 28.498699188, "Data_year": "2010" }, "geometry": { "type": "Point", "coordinates": [ 28.498699188017198, -12.8826400000359 ] } },
{ "type": "Feature", "properties": { "FID": 20, "GlobalID": "35LPF566634_002", "Type": "School", "SubType": "Community School", "Name": "Mayonde Community School", "Orig_Name": "mayonde com sc", "Source": "ZamStats", "Province": "Copperbelt", "Prov_Code": 102, "District": "Kitwe", "Distr_Code": 102010, "LAT": -12.9907099997, "LONG": 28.444099426499999, "Data_year": "2010" }, "geometry": { "type": "Point", "coordinates": [ 28.4440994265473, -12.9907099996667 ] } },
{ "type": "Feature", "properties": { "FID": 21, "GlobalID": "35LPF623752_001", "Type": "School", "SubType": "Nursery School", "Name": "Kam Nursery School", "Orig_Name": "nursary school", "Source": "ZamStats", "Province": "Copperbelt", "Prov_Code": 102, "District": "Kitwe", "Distr_Code": 102010, "LAT": -12.8833399999, "LONG": 28.4962997437, "Data_year": "2010" }, "geometry": { "type": "Point", "coordinates": [ 28.496299743738199, -12.883339999941001 ] } },
{ "type": "Feature", "properties": { "FID": 22, "GlobalID": "35LPF894521_002", "Type": "School", "SubType": "Basic School", "Name": "Turgagan Basic School", "Orig_Name": "turgagan b sch", "Source": "ZamStats", "Province": "Copperbelt", "Prov_Code": 102, "District": "Ndola", "Distr_Code": 102010, "LAT": -13.0905700002, "LONG": 28.747400284099999, "Data_year": "2010" }, "geometry": { "type": "Point", "coordinates": [ 28.7474002840959, -13.0905700002053 ] } },
{ "type": "Feature", "properties": { "FID": 23, "GlobalID": "35LPF805511_001", "Type": "School", "SubType": "Community School", "Name": "Bearfoot Community School", "Orig_Name": "bearfoot co sc", "Source": "ZamStats", "Province": "Copperbelt", "Prov_Code": 102, "District": "Ndola", "Distr_Code": 102010, "LAT": -13.1008900004, "LONG": 28.665800095000002, "Data_year": "2010" }, "geometry": { "type": "Point", "coordinates": [ 28.665800094998399, -13.1008900003732 ] } },
{ "type": "Feature", "properties": { "FID": 24, "GlobalID": "35LPF841532_001", "Type": "School", "SubType": "School", "Name": "Chalubemba School", "Orig_Name": "chalubemba sch", "Source": "ZamStats", "Province": "Copperbelt", "Prov_Code": 102, "District": "Ndola", "Distr_Code": 102010, "LAT": -13.08103, "LONG": 28.698900223, "Data_year": "2010" }, "geometry": { "type": "Point", "coordinates": [ 28.698900222967001, -13.081030000034399 ] } },
{ "type": "Feature", "properties": { "FID": 25, "GlobalID": "35LPF807514_001", "Type": "School Affiliated Infrastructure", "SubType": "Girls Dormitory", "Name": "Fatima Girls Dormitory", "Orig_Name": "fatima girls", "Source": "ZamStats", "Province": "Copperbelt", "Prov_Code": 102, "District": "Ndola", "Distr_Code": 102010, "LAT": -13.09784, "LONG": 28.6674995421, "Data_year": "2010" }, "geometry": { "type": "Point", "coordinates": [ 28.667499542070299, -13.0978400000159 ] } },
{ "type": "Feature", "properties": { "FID": 26, "GlobalID": "35LPF804512_001", "Type": "School Affiliated Infrastructure", "SubType": "Teachers Compound", "Name": "Fatima Teachers Compound", "Orig_Name": "fatima teac co", "Source": "ZamStats", "Province": "Copperbelt", "Prov_Code": 102, "District": "Ndola", "Distr_Code": 102010, "LAT": -13.099600000200001, "LONG": 28.664499283200001, "Data_year": "2010" }, "geometry": { "type": "Point", "coordinates": [ 28.664499283215399, -13.0996000002398 ] } },
{ "type": "Feature", "properties": { "FID": 27, "GlobalID": "35LPF817489_002", "Type": "School", "SubType": "School", "Name": "Tumelo nur School", "Orig_Name": "tumelo nur sch", "Source": "ZamStats", "Province": "Copperbelt", "Prov_Code": 102, "District": "Ndola", "Distr_Code": 102010, "LAT": -13.1201200004, "LONG": 28.676399231200001, "Data_year": "2010" }, "geometry": { "type": "Point", "coordinates": [ 28.6763992312396, -13.1201200004376 ] } },
{ "type": "Feature", "properties": { "FID": 28, "GlobalID": "35LPF801517_002", "Type": "School", "SubType": "Basic School", "Name": "Yengwe Basic School", "Orig_Name": "yengwe bas sch", "Source": "ZamStats", "Province": "Copperbelt", "Prov_Code": 102, "District": "Ndola", "Distr_Code": 102010, "LAT": -13.0947800001, "LONG": 28.6613998417, "Data_year": "2010" }, "geometry": { "type": "Point", "coordinates": [ 28.661399841729299, -13.0947800000969 ] } },
{ "type": "Feature", "properties": { "FID": 29, "GlobalID": "35LPF348482_001", "Type": "School", "SubType": "School", "Name": "Kampelembe School", "Orig_Name": "kampelembe sch", "Source": "ZamStats", "Province": "Copperbelt", "Prov_Code": 102, "District": "Luanshya", "Distr_Code": 102005, "LAT": -13.1287999996, "LONG": 28.243999480799999, "Data_year": "2010" }, "geometry": { "type": "Point", "coordinates": [ 28.243999480791398, -13.128799999620201 ] } },
{ "type": "Feature", "properties": { "FID": 30, "GlobalID": "35LPF395519_001", "Type": "School", "SubType": "Community School", "Name": "Kasununu Community School", "Orig_Name": "kasununu com s", "Source": "ZamStats", "Province": "Copperbelt", "Prov_Code": 102, "District": "Luanshya", "Distr_Code": 102005, "LAT": -13.0957200003, "LONG": 28.287599563299999, "Data_year": "2010" }, "geometry": { "type": "Point", "coordinates": [ 28.2875995632693, -13.095720000277799 ] } },
{ "type": "Feature", "properties": { "FID": 31, "GlobalID": "35LPF887585_002", "Type": "School", "SubType": "Community School", "Name": "School", "Orig_Name": "comm school", "Source": "ZamStats", "Province": "Copperbelt", "Prov_Code": 102, "District": "Ndola", "Distr_Code": 102010, "LAT": -13.0333100001, "LONG": 28.7404003147, "Data_year": "2010" }, "geometry": { "type": "Point", "coordinates": [ 28.740400314722802, -13.0333100000564 ] } },
{ "type": "Feature", "properties": { "FID": 32, "GlobalID": "35LPF658454_002", "Type": "School", "SubType": "Basic School", "Name": "Kafubu Basic School", "Orig_Name": "kafubu b sch", "Source": "ZamStats", "Province": "Copperbelt", "Prov_Code": 102, "District": "Luanshya", "Distr_Code": 102005, "LAT": -13.152609999599999, "LONG": 28.5305995943, "Data_year": "2010" }, "geometry": { "type": "Point", "coordinates": [ 28.5305995942959, -13.1526099995518 ] } },
{ "type": "Feature", "properties": { "FID": 33, "GlobalID": "35LPF659588_002", "Type": "School", "SubType": "Basic School", "Name": "Kasongo Basic School", "Orig_Name": "kasongo b sch", "Source": "ZamStats", "Province": "Copperbelt", "Prov_Code": 102, "District": "Luanshya", "Distr_Code": 102005, "LAT": -13.03173, "LONG": 28.5305995943, "Data_year": "2010" }, "geometry": { "type": "Point", "coordinates": [ 28.5305995942959, -13.031730000039399 ] } },
{ "type": "Feature", "properties": { "FID": 34, "GlobalID": "35LPF418448_001", "Type": "School", "SubType": "School", "Name": "Chisokone School", "Orig_Name": "chisokone sch", "Source": "ZamStats", "Province": "Copperbelt", "Prov_Code": 102, "District": "Luanshya", "Distr_Code": 102005, "LAT": -13.1594500002, "LONG": 28.308399200499998, "Data_year": "2010" }, "geometry": { "type": "Point", "coordinates": [ 28.308399200462802, -13.1594500002173 ] } },
{ "type": "Feature", "properties": { "FID": 35, "GlobalID": "35LPF566769_001", "Type": "School", "SubType": "Community School", "Name": "Kawama Community School", "Orig_Name": "kawama c schol", "Source": "ZamStats", "Province": "Copperbelt", "Prov_Code": 102, "District": "Kitwe", "Distr_Code": 102010, "LAT": -12.8686200001, "LONG": 28.4440002439, "Data_year": "2010" }, "geometry": { "type": "Point", "coordinates": [ 28.4440002439162, -12.8686200001129 ] } },
{ "type": "Feature", "properties": { "FID": 36, "GlobalID": "35LPF704444_001", "Type": "School", "SubType": "Community School", "Name": "Orphanage Community School", "Orig_Name": "orphanage com", "Source": "ZamStats", "Province": "Copperbelt", "Prov_Code": 102, "District": "Ndola", "Distr_Code": 102010, "LAT": -13.16196, "LONG": 28.572900772499999, "Data_year": "2010" }, "geometry": { "type": "Point", "coordinates": [ 28.572900772452702, -13.161959999954 ] } },
{ "type": "Feature", "properties": { "FID": 37, "GlobalID": "35LPF578675_001", "Type": "School", "SubType": "School", "Name": "St mary School", "Orig_Name": "st mary schoo", "Source": "ZamStats", "Province": "Copperbelt", "Prov_Code": 102, "District": "Kitwe", "Distr_Code": 102010, "LAT": -12.9532299998, "LONG": 28.4552001956, "Data_year": "2010" }, "geometry": { "type": "Point", "coordinates": [ 28.4552001956326, -12.9532299997646 ] } },
{ "type": "Feature", "properties": { "FID": 38, "GlobalID": "35LPF543626_001", "Type": "School", "SubType": "School", "Name": "Tulabula School", "Orig_Name": "tulabula sch", "Source": "ZamStats", "Province": "Copperbelt", "Prov_Code": 102, "District": "Kitwe", "Distr_Code": 102010, "LAT": -12.9975999999, "LONG": 28.423000335800001, "Data_year": "2010" }, "geometry": { "type": "Point", "coordinates": [ 28.4230003357969, -12.99759999994 ] } },
{ "type": "Feature", "properties": { "FID": 39, "GlobalID": "35LPF519784_001", "Type": "School", "SubType": "School", "Name": "School", "Orig_Name": "school u contr", "Source": "ZamStats", "Province": "Copperbelt", "Prov_Code": 102, "District": "Kitwe", "Distr_Code": 102010, "LAT": -12.8550999999, "LONG": 28.400199890500001, "Data_year": "2010" }, "geometry": { "type": "Point", "coordinates": [ 28.400199890512599, -12.855099999865001 ] } },
{ "type": "Feature", "properties": { "FID": 40, "GlobalID": "35LPF251936_001", "Type": "College", "SubType": "College", "Name": "College", "Orig_Name": "college reside", "Source": "ZamStats", "Province": "Copperbelt", "Prov_Code": 102, "District": "Kitwe", "Distr_Code": 102004, "LAT": -12.7192200002, "LONG": 28.153099059799999, "Data_year": "2010" }, "geometry": { "type": "Point", "coordinates": [ 28.153099059773901, -12.7192200002028 ] } },
{ "type": "Feature", "properties": { "FID": 41, "GlobalID": "35LPF281920_001", "Type": "School", "SubType": "Secondary School", "Name": "Agathas Secondary School", "Orig_Name": "agathas fou sc", "Source": "ZamStats", "Province": "Copperbelt", "Prov_Code": 102, "District": "Kitwe", "Distr_Code": 102004, "LAT": -12.7332000001, "LONG": 28.1800003048, "Data_year": "2010" }, "geometry": { "type": "Point", "coordinates": [ 28.180000304770299, -12.733200000079901 ] } },
{ "type": "Feature", "properties": { "FID": 42, "GlobalID": "35LPF281921_001", "Type": "School", "SubType": "School", "Name": "Life song School", "Orig_Name": "life song sch", "Source": "ZamStats", "Province": "Copperbelt", "Prov_Code": 102, "District": "Kitwe", "Distr_Code": 102004, "LAT": -12.7329799998, "LONG": 28.180599212800001, "Data_year": "2010" }, "geometry": { "type": "Point", "coordinates": [ 28.180599212783498, -12.7329799998271 ] } },
{ "type": "Feature", "properties": { "FID": 43, "GlobalID": "35LPF276921_001", "Type": "School", "SubType": "School", "Name": "Sepiso School", "Orig_Name": "sepiso chr sch", "Source": "ZamStats", "Province": "Copperbelt", "Prov_Code": 102, "District": "Kitwe", "Distr_Code": 102004, "LAT": -12.7321700002, "LONG": 28.175699234100001, "Data_year": "2010" }, "geometry": { "type": "Point", "coordinates": [ 28.175699234132399, -12.732170000245301 ] } },
{ "type": "Feature", "properties": { "FID": 44, "GlobalID": "35LPF379753_001", "Type": "School", "SubType": "School", "Name": "Cb inter School", "Orig_Name": "cb inter sch", "Source": "ZamStats", "Province": "Copperbelt", "Prov_Code": 102, "District": "Kitwe", "Distr_Code": 102004, "LAT": -12.8842899997, "LONG": 28.271799087400002, "Data_year": "2010" }, "geometry": { "type": "Point", "coordinates": [ 28.271799087358001, -12.8842899996837 ] } },
{ "type": "Feature", "properties": { "FID": 45, "GlobalID": "35LPF370757_001", "Type": "School", "SubType": "Community School", "Name": "Community School", "Orig_Name": "com dev colege", "Source": "ZamStats", "Province": "Copperbelt", "Prov_Code": 102, "District": "Kitwe", "Distr_Code": 102004, "LAT": -12.8802100004, "LONG": 28.263200760099998, "Data_year": "2010" }, "geometry": { "type": "Point", "coordinates": [ 28.2632007601071, -12.8802100003912 ] } },
{ "type": "Feature", "properties": { "FID": 46, "GlobalID": "35LPG077004_001", "Type": "School", "SubType": "School", "Name": "Fitanda School", "Orig_Name": "fitanda sch", "Source": "ZamStats", "Province": "Copperbelt", "Prov_Code": 102, "District": "Kalulushi", "Distr_Code": 102003, "LAT": -12.657819999799999, "LONG": 27.9922008516, "Data_year": "2010" }, "geometry": { "type": "Point", "coordinates": [ 27.992200851588098, -12.6578199997931 ] } },
{ "type": "Feature", "properties": { "FID": 47, "GlobalID": "35LPF152961_001", "Type": "School", "SubType": "School", "Name": "Kalusale School", "Orig_Name": "kalusale sch", "Source": "ZamStats", "Province": "Copperbelt", "Prov_Code": 102, "District": "Kalulushi", "Distr_Code": 102003, "LAT": -12.696870000200001, "LONG": 28.061899185200001, "Data_year": "2010" }, "geometry": { "type": "Point", "coordinates": [ 28.061899185199302, -12.6968700001503 ] } },
{ "type": "Feature", "properties": { "FID": 48, "GlobalID": "35LPF374735_002", "Type": "School", "SubType": "School", "Name": "Limapela School", "Orig_Name": "limapela sch", "Source": "ZamStats", "Province": "Copperbelt", "Prov_Code": 102, "District": "Kitwe", "Distr_Code": 102004, "LAT": -12.9003500002, "LONG": 28.267099380499999, "Data_year": "2010" }, "geometry": { "type": "Point", "coordinates": [ 28.267099380531999, -12.900350000152301 ] } },
{ "type": "Feature", "properties": { "FID": 49, "GlobalID": "35LPF187969_001", "Type": "School", "SubType": "School", "Name": "Mukulumpe School", "Orig_Name": "mukulumpe sch", "Source": "ZamStats", "Province": "Copperbelt", "Prov_Code": 102, "District": "Kalulushi", "Distr_Code": 102003, "LAT": -12.689870000200001, "LONG": 28.093599319700001, "Data_year": "2010" }, "geometry": { "type": "Point", "coordinates": [ 28.093599319652899, -12.689870000200299 ] } },
{ "type": "Feature", "properties": { "FID": 50, "GlobalID": "35LPF070942_001", "Type": "School", "SubType": "School", "Name": "Musenga School", "Orig_Name": "musenga sch", "Source": "ZamStats", "Province": "Copperbelt", "Prov_Code": 102, "District": "Kalulushi", "Distr_Code": 102003, "LAT": -12.714039999600001, "LONG": 27.986299514700001, "Data_year": "2010" }, "geometry": { "type": "Point", "coordinates": [ 27.9862995147109, -12.7140399996462 ] } },
{ "type": "Feature", "properties": { "FID": 51, "GlobalID": "35LPF069892_001", "Type": "School", "SubType": "School", "Name": "Chishilano School", "Orig_Name": "chishilano sch", "Source": "ZamStats", "Province": "Copperbelt", "Prov_Code": 102, "District": "Kalulushi", "Distr_Code": 102003, "LAT": -12.7599400002, "LONG": 27.985200882200001, "Data_year": "2010" }, "geometry": { "type": "Point", "coordinates": [ 27.985200882215, -12.759940000230801 ] } },
{ "type": "Feature", "properties": { "FID": 52, "GlobalID": "35LPF044978_001", "Type": "School", "SubType": "Basic School", "Name": "Milundu Basic School", "Orig_Name": "milundu b sch", "Source": "ZamStats", "Province": "Copperbelt", "Prov_Code": 102, "District": "Kalulushi", "Distr_Code": 102003, "LAT": -12.6819999997, "LONG": 27.962299346799998, "Data_year": "2010" }, "geometry": { "type": "Point", "coordinates": [ 27.962299346837401, -12.681999999700199 ] } },
{ "type": "Feature", "properties": { "FID": 53, "GlobalID": "35LPF591646_002", "Type": "School", "SubType": "Community School", "Name": "Chibwe Community School", "Orig_Name": "chibwe c sch", "Source": "ZamStats", "Province": "Copperbelt", "Prov_Code": 102, "District": "Luanshya", "Distr_Code": 102005, "LAT": -12.9795300003, "LONG": 28.467100143700002, "Data_year": "2010" }, "geometry": { "type": "Point", "coordinates": [ 28.467100143656801, -12.9795300003092 ] } },
{ "type": "Feature", "properties": { "FID": 54, "GlobalID": "35LPF144914_001", "Type": "School", "SubType": "School", "Name": "Denovan School", "Orig_Name": "denovan school", "Source": "ZamStats", "Province": "Copperbelt", "Prov_Code": 102, "District": "Kalulushi", "Distr_Code": 102003, "LAT": -12.739230000299999, "LONG": 28.053899765099999, "Data_year": "2010" }, "geometry": { "type": "Point", "coordinates": [ 28.053899765062202, -12.7392300002642 ] } },
{ "type": "Feature", "properties": { "FID": 55, "GlobalID": "35LPF602617_001", "Type": "School", "SubType": "Community School", "Name": "Elohimu Community School", "Orig_Name": "elohimu c sch", "Source": "ZamStats", "Province": "Copperbelt", "Prov_Code": 102, "District": "Luanshya", "Distr_Code": 102005, "LAT": -13.005749999900001, "LONG": 28.477699279900001, "Data_year": "2010" }, "geometry": { "type": "Point", "coordinates": [ 28.477699279897902, -13.0057499998625 ] } },
{ "type": "Feature", "properties": { "FID": 56, "GlobalID": "35LPF222913_002", "Type": "School", "SubType": "Basic School", "Name": "Ichimpe Basic School", "Orig_Name": "ichimpe b sch", "Source": "ZamStats", "Province": "Copperbelt", "Prov_Code": 102, "District": "Kalulushi", "Distr_Code": 102003, "LAT": -12.7400399998, "LONG": 28.126100540500001, "Data_year": "2010" }, "geometry": { "type": "Point", "coordinates": [ 28.126100540507601, -12.7400399998461 ] } },
{ "type": "Feature", "properties": { "FID": 57, "GlobalID": "35LPF619610_001", "Type": "School", "SubType": "Community School", "Name": "Mansansa Community School", "Orig_Name": "mansansa c sch", "Source": "ZamStats", "Province": "Copperbelt", "Prov_Code": 102, "District": "Luanshya", "Distr_Code": 102005, "LAT": -13.0123999999, "LONG": 28.493499755799998, "Data_year": "2010" }, "geometry": { "type": "Point", "coordinates": [ 28.493499755809101, -13.012399999860101 ] } },
{ "type": "Feature", "properties": { "FID": 58, "GlobalID": "35LPF111876_002", "Type": "School", "SubType": "School", "Name": "Twikatane School", "Orig_Name": "twikatane sch", "Source": "ZamStats", "Province": "Copperbelt", "Prov_Code": 102, "District": "Kalulushi", "Distr_Code": 102003, "LAT": -12.7738, "LONG": 28.024200439600001, "Data_year": "2010" }, "geometry": { "type": "Point", "coordinates": [ 28.024200439598602, -12.77379999997 ] } },
{ "type": "Feature", "properties": { "FID": 59, "GlobalID": "35LPF509829_001", "Type": "School", "SubType": "Community School", "Name": "Katuka Community School", "Orig_Name": "katuka comm sc", "Source": "ZamStats", "Province": "Copperbelt", "Prov_Code": 102, "District": "Kitwe", "Distr_Code": 102004, "LAT": -12.814629999699999, "LONG": 28.391300201300002, "Data_year": "2010" }, "geometry": { "type": "Point", "coordinates": [ 28.391300201343299, -12.8146299996747 ] } },
{ "type": "Feature", "properties": { "FID": 60, "GlobalID": "35LPF050812_001", "Type": "School", "SubType": "Community School", "Name": "Lunga Community School", "Orig_Name": "lunga comm sch", "Source": "ZamStats", "Province": "Copperbelt", "Prov_Code": 102, "District": "Kalulushi", "Distr_Code": 102003, "LAT": -12.8320099999, "LONG": 27.967899322699999, "Data_year": "2010" }, "geometry": { "type": "Point", "coordinates": [ 27.967899322695601, -12.832009999861601 ] } },
{ "type": "Feature", "properties": { "FID": 61, "GlobalID": "35LPF391764_001", "Type": "School", "SubType": "School", "Name": "Kafue School", "Orig_Name": "kafue brg sch", "Source": "ZamStats", "Province": "Copperbelt", "Prov_Code": 102, "District": "Kitwe", "Distr_Code": 102004, "LAT": -12.8737399997, "LONG": 28.2828998564, "Data_year": "2010" }, "geometry": { "type": "Point", "coordinates": [ 28.282899856443301, -12.873739999701201 ] } },
{ "type": "Feature", "properties": { "FID": 62, "GlobalID": "35LPF220957_002", "Type": "School", "SubType": "Basic School", "Name": "Luela Basic School", "Orig_Name": "luela b sch", "Source": "ZamStats", "Province": "Copperbelt", "Prov_Code": 102, "District": "Kalulushi", "Distr_Code": 102003, "LAT": -12.7003, "LONG": 28.123800278000001, "Data_year": "2010" }, "geometry": { "type": "Point", "coordinates": [ 28.123800277960498, -12.7003000000449 ] } },
{ "type": "Feature", "properties": { "FID": 63, "GlobalID": "35LPG166025_001", "Type": "School", "SubType": "School", "Name": "Providence School", "Orig_Name": "providence sch", "Source": "ZamStats", "Province": "Copperbelt", "Prov_Code": 102, "District": "Kalulushi", "Distr_Code": 102003, "LAT": -12.6390199998, "LONG": 28.0744991304, "Data_year": "2010" }, "geometry": { "type": "Point", "coordinates": [ 28.074499130430599, -12.639019999773099 ] } },
{ "type": "Feature", "properties": { "FID": 64, "GlobalID": "35LPF218959_001", "Type": "School Affiliated Infrastructure", "SubType": "Teachers Compound", "Name": "Luela Teachers Compound", "Orig_Name": "teachers comp", "Source": "ZamStats", "Province": "Copperbelt", "Prov_Code": 102, "District": "Kalulushi", "Distr_Code": 102003, "LAT": -12.6980499997, "LONG": 28.1226997371, "Data_year": "2010" }, "geometry": { "type": "Point", "coordinates": [ 28.122699737103201, -12.698049999707701 ] } },
{ "type": "Feature", "properties": { "FID": 65, "GlobalID": "35LPF440799_001", "Type": "School", "SubType": "Community School", "Name": "Chipashi Community School", "Orig_Name": "chipashi c sch", "Source": "ZamStats", "Province": "Copperbelt", "Prov_Code": 102, "District": "Kitwe", "Distr_Code": 102004, "LAT": -12.8417199998, "LONG": 28.327100753500002, "Data_year": "2010" }, "geometry": { "type": "Point", "coordinates": [ 28.327100753497, -12.8417199997781 ] } },
{ "type": "Feature", "properties": { "FID": 66, "GlobalID": "35LPF412898_001", "Type": "School", "SubType": "School", "Name": "Mutupa School", "Orig_Name": "mutupa school", "Source": "ZamStats", "Province": "Copperbelt", "Prov_Code": 102, "District": "Kitwe", "Distr_Code": 102004, "LAT": -12.7523999997, "LONG": 28.300899505699999, "Data_year": "2010" }, "geometry": { "type": "Point", "coordinates": [ 28.300899505707701, -12.7523999996602 ] } },
{ "type": "Feature", "properties": { "FID": 67, "GlobalID": "35LPF368836_001", "Type": "College", "SubType": "College", "Name": "Vic b College", "Orig_Name": "vic b college", "Source": "ZamStats", "Province": "Copperbelt", "Prov_Code": 102, "District": "Kitwe", "Distr_Code": 102004, "LAT": -12.8090699996, "LONG": 28.260700225699999, "Data_year": "2010" }, "geometry": { "type": "Point", "coordinates": [ 28.260700225734901, -12.8090699995807 ] } },
{ "type": "Feature", "properties": { "FID": 68, "GlobalID": "35LPF443447_001", "Type": "School", "SubType": "School", "Name": "Kamishishi School", "Orig_Name": "kamishishi sch", "Source": "ZamStats", "Province": "Copperbelt", "Prov_Code": 102, "District": "Luanshya", "Distr_Code": 102005, "LAT": -13.160079999600001, "LONG": 28.331699371100001, "Data_year": "2010" }, "geometry": { "type": "Point", "coordinates": [ 28.331699371129101, -13.1600799995923 ] } },
{ "type": "Feature", "properties": { "FID": 69, "GlobalID": "35LNG532209_001", "Type": "School", "SubType": "School", "Name": "Kawowelo School", "Orig_Name": "kawowelo sch", "Source": "ZamStats", "Province": "Copperbelt", "Prov_Code": 102, "District": "Chingola", "Distr_Code": 102002, "LAT": -12.474630000199999, "LONG": 27.489599228100001, "Data_year": "2010" }, "geometry": { "type": "Point", "coordinates": [ 27.4895992281219, -12.474630000174299 ] } },
{ "type": "Feature", "properties": { "FID": 70, "GlobalID": "35LPG244049_002", "Type": "School", "SubType": "School", "Name": "Lukoshi School", "Orig_Name": "lukoshi school", "Source": "ZamStats", "Province": "Copperbelt", "Prov_Code": 102, "District": "Kalulushi", "Distr_Code": 102003, "LAT": -12.617090000199999, "LONG": 28.145500183300001, "Data_year": "2010" }, "geometry": { "type": "Point", "coordinates": [ 28.145500183286899, -12.6170900002033 ] } },
{ "type": "Feature", "properties": { "FID": 71, "GlobalID": "35LPG221061_002", "Type": "School", "SubType": "School", "Name": "Luongo School", "Orig_Name": "luongo school", "Source": "ZamStats", "Province": "Copperbelt", "Prov_Code": 102, "District": "Kalulushi", "Distr_Code": 102003, "LAT": -12.606440000099999, "LONG": 28.124500274300001, "Data_year": "2010" }, "geometry": { "type": "Point", "coordinates": [ 28.1245002742683, -12.6064400001059 ] } },
{ "type": "Feature", "properties": { "FID": 72, "GlobalID": "35LPF318664_001", "Type": "School", "SubType": "Basic School", "Name": "Lupili Basic School", "Orig_Name": "lupili bs sch", "Source": "ZamStats", "Province": "Copperbelt", "Prov_Code": 102, "District": "Kitwe", "Distr_Code": 102004, "LAT": -12.964829999599999, "LONG": 28.215900420699999, "Data_year": "2010" }, "geometry": { "type": "Point", "coordinates": [ 28.2159004206679, -12.964829999604801 ] } },
{ "type": "Feature", "properties": { "FID": 73, "GlobalID": "35LNG891143_001", "Type": "School", "SubType": "Basic School", "Name": "Mushishima Basic School", "Orig_Name": "mushishima bsc", "Source": "ZamStats", "Province": "Copperbelt", "Prov_Code": 102, "District": "Chingola", "Distr_Code": 102002, "LAT": -12.5333700002, "LONG": 27.820999145799998, "Data_year": "2010" }, "geometry": { "type": "Point", "coordinates": [ 27.820999145794001, -12.5333700002253 ] } },
{ "type": "Feature", "properties": { "FID": 74, "GlobalID": "35LPF271913_001", "Type": "School", "SubType": "Basic School", "Name": "Garneton Basic School", "Orig_Name": "garneton basic", "Source": "ZamStats", "Province": "Copperbelt", "Prov_Code": 102, "District": "Kitwe", "Distr_Code": 102004, "LAT": -12.740079999900001, "LONG": 28.170900344700001, "Data_year": "2010" }, "geometry": { "type": "Point", "coordinates": [ 28.1709003446752, -12.740079999892 ] } },
{ "type": "Feature", "properties": { "FID": 75, "GlobalID": "35LPF551444_002", "Type": "School", "SubType": "Basic School", "Name": "Mama rosa Basic School", "Orig_Name": "mama rosa basi", "Source": "ZamStats", "Province": "Copperbelt", "Prov_Code": 102, "District": "Luanshya", "Distr_Code": 102005, "LAT": -13.1622000002, "LONG": 28.431200027799999, "Data_year": "2010" }, "geometry": { "type": "Point", "coordinates": [ 28.4312000277591, -13.162200000229801 ] } },
{ "type": "Feature", "properties": { "FID": 76, "GlobalID": "35LPF271929_001", "Type": "School", "SubType": "Basic School", "Name": "Mwambashi Basic School", "Orig_Name": "mwambashi basi", "Source": "ZamStats", "Province": "Copperbelt", "Prov_Code": 102, "District": "Kitwe", "Distr_Code": 102004, "LAT": -12.7256999996, "LONG": 28.1716003419, "Data_year": "2010" }, "geometry": { "type": "Point", "coordinates": [ 28.1716003418823, -12.7256999995553 ] } },
{ "type": "Feature", "properties": { "FID": 77, "GlobalID": "35LPF553439_002", "Type": "School", "SubType": "Community School", "Name": "Noahs ark Community School", "Orig_Name": "noahs ark com", "Source": "ZamStats", "Province": "Copperbelt", "Prov_Code": 102, "District": "Luanshya", "Distr_Code": 102005, "LAT": -13.166729999599999, "LONG": 28.433200835800001, "Data_year": "2010" }, "geometry": { "type": "Point", "coordinates": [ 28.433200835849998, -13.1667299995898 ] } },
{ "type": "Feature", "properties": { "FID": 78, "GlobalID": "35LPF270929_001", "Type": "School Affiliated Infrastructure", "SubType": "Teachers Compound", "Name": "Teachers Compound", "Orig_Name": "school houses", "Source": "ZamStats", "Province": "Copperbelt", "Prov_Code": 102, "District": "Kitwe", "Distr_Code": 102004, "LAT": -12.72493, "LONG": 28.170600891100001, "Data_year": "2010" }, "geometry": { "type": "Point", "coordinates": [ 28.170600891118301, -12.7249300000194 ] } },
{ "type": "Feature", "properties": { "FID": 79, "GlobalID": "35LPF073804_001", "Type": "School", "SubType": "School", "Name": "Chembe School", "Orig_Name": "chembe school", "Source": "ZamStats", "Province": "Copperbelt", "Prov_Code": 102, "District": "Kalulushi", "Distr_Code": 102003, "LAT": -12.838699999899999, "LONG": 27.989099502599998, "Data_year": "2010" }, "geometry": { "type": "Point", "coordinates": [ 27.989099502639998, -12.838699999905 ] } },
{ "type": "Feature", "properties": { "FID": 80, "GlobalID": "35LPF477789_001", "Type": "College", "SubType": "College", "Name": "Mwekera College", "Orig_Name": "college comp", "Source": "ZamStats", "Province": "Copperbelt", "Prov_Code": 102, "District": "Kitwe", "Distr_Code": 102004, "LAT": -12.8509799996, "LONG": 28.3617992402, "Data_year": "2010" }, "geometry": { "type": "Point", "coordinates": [ 28.361799240242799, -12.850979999627199 ] } },
{ "type": "Feature", "properties": { "FID": 81, "GlobalID": "35LPF111813_001", "Type": "School", "SubType": "School", "Name": "Kalisha School", "Orig_Name": "kalisha school", "Source": "ZamStats", "Province": "Copperbelt", "Prov_Code": 102, "District": "Kalulushi", "Distr_Code": 102003, "LAT": -12.8311200002, "LONG": 28.0240993504, "Data_year": "2010" }, "geometry": { "type": "Point", "coordinates": [ 28.0240993504048, -12.8311200001878 ] } },
{ "type": "Feature", "properties": { "FID": 82, "GlobalID": "35LPF079859_002", "Type": "School", "SubType": "School", "Name": "Lushimba School", "Orig_Name": "lushimba schol", "Source": "ZamStats", "Province": "Copperbelt", "Prov_Code": 102, "District": "Kalulushi", "Distr_Code": 102003, "LAT": -12.7896499997, "LONG": 27.994699478499999, "Data_year": "2010" }, "geometry": { "type": "Point", "coordinates": [ 27.994699478498202, -12.7896499997477 ] } },
{ "type": "Feature", "properties": { "FID": 83, "GlobalID": "35LPF474787_001", "Type": "School", "SubType": "School", "Name": "Mwekera School", "Orig_Name": "mwekera school", "Source": "ZamStats", "Province": "Copperbelt", "Prov_Code": 102, "District": "Kitwe", "Distr_Code": 102004, "LAT": -12.853069999800001, "LONG": 28.3584003452, "Data_year": "2010" }, "geometry": { "type": "Point", "coordinates": [ 28.358400345199801, -12.853069999780599 ] } },
{ "type": "Feature", "properties": { "FID": 84, "GlobalID": "35LPF072803_002", "Type": "School Affiliated Infrastructure", "SubType": "Teachers Compound", "Name": "Chembe Teachers Compound", "Orig_Name": "teachers comp", "Source": "ZamStats", "Province": "Copperbelt", "Prov_Code": 102, "District": "Kalulushi", "Distr_Code": 102003, "LAT": -12.839869999899999, "LONG": 27.988100051899998, "Data_year": "2010" }, "geometry": { "type": "Point", "coordinates": [ 27.988100051876, -12.8398699999005 ] } },
{ "type": "Feature", "properties": { "FID": 85, "GlobalID": "35LNF967893_002", "Type": "School", "SubType": "Secondary School", "Name": "Chiwembashi Secondary School", "Orig_Name": "chiwembashi sc", "Source": "ZamStats", "Province": "Copperbelt", "Prov_Code": 102, "District": "Kalulushi", "Distr_Code": 102003, "LAT": -12.7587300002, "LONG": 27.890899657799999, "Data_year": "2010" }, "geometry": { "type": "Point", "coordinates": [ 27.890899657793, -12.758730000189299 ] } },
{ "type": "Feature", "properties": { "FID": 86, "GlobalID": "35LNF927866_001", "Type": "School", "SubType": "School", "Name": "Chiwempala School", "Orig_Name": "chiwempala sch", "Source": "ZamStats", "Province": "Copperbelt", "Prov_Code": 102, "District": "Kalulushi", "Distr_Code": 102003, "LAT": -12.783110000300001, "LONG": 27.854900360199998, "Data_year": "2010" }, "geometry": { "type": "Point", "coordinates": [ 27.854900360163501, -12.7831100003262 ] } },
{ "type": "Feature", "properties": { "FID": 87, "GlobalID": "35LNF917917_003", "Type": "School", "SubType": "Community School", "Name": "Chipuya Community School", "Orig_Name": "chipuya cm sch", "Source": "ZamStats", "Province": "Copperbelt", "Prov_Code": 102, "District": "Kalulushi", "Distr_Code": 102003, "LAT": -12.7378100004, "LONG": 27.8453998564, "Data_year": "2010" }, "geometry": { "type": "Point", "coordinates": [ 27.8453998564183, -12.7378100004311 ] } },
{ "type": "Feature", "properties": { "FID": 88, "GlobalID": "35LPF445761_001", "Type": "School", "SubType": "Basic School", "Name": "Kamfinsa Basic School", "Orig_Name": "kamfinsa basic", "Source": "ZamStats", "Province": "Copperbelt", "Prov_Code": 102, "District": "Kitwe", "Distr_Code": 102004, "LAT": -12.8767799996, "LONG": 28.331899643, "Data_year": "2010" }, "geometry": { "type": "Point", "coordinates": [ 28.331899642954198, -12.8767799995973 ] } },
{ "type": "Feature", "properties": { "FID": 89, "GlobalID": "35LNF996858_001", "Type": "School", "SubType": "Community School", "Name": "Katuta Community School", "Orig_Name": "katuta com sch", "Source": "ZamStats", "Province": "Copperbelt", "Prov_Code": 102, "District": "Kalulushi", "Distr_Code": 102003, "LAT": -12.7909100003, "LONG": 27.918199539, "Data_year": "2010" }, "geometry": { "type": "Point", "coordinates": [ 27.9181995389776, -12.790910000296201 ] } },
{ "type": "Feature", "properties": { "FID": 90, "GlobalID": "35LPF450727_001", "Type": "School", "SubType": "School", "Name": "Mission School", "Orig_Name": "mission sch", "Source": "ZamStats", "Province": "Copperbelt", "Prov_Code": 102, "District": "Kitwe", "Distr_Code": 102004, "LAT": -12.9070499998, "LONG": 28.337400436199999, "Data_year": "2010" }, "geometry": { "type": "Point", "coordinates": [ 28.337400436181198, -12.9070499997576 ] } },
{ "type": "Feature", "properties": { "FID": 91, "GlobalID": "35LPF445760_001", "Type": "School Affiliated Infrastructure", "SubType": "Teachers Compound", "Name": "Kamfinsa Teachers Compound", "Orig_Name": "teachers comp", "Source": "ZamStats", "Province": "Copperbelt", "Prov_Code": 102, "District": "Kitwe", "Distr_Code": 102004, "LAT": -12.877599999599999, "LONG": 28.332399368299999, "Data_year": "2010" }, "geometry": { "type": "Point", "coordinates": [ 28.332399368336201, -12.8775999996402 ] } },
{ "type": "Feature", "properties": { "FID": 92, "GlobalID": "35LNG779358_001", "Type": "School", "SubType": "Basic School", "Name": "Butando Basic School", "Orig_Name": "butondo b sch", "Source": "ZamStats", "Province": "Copperbelt", "Prov_Code": 102, "District": "Chililabombwe", "Distr_Code": 102001, "LAT": -12.3391399996, "LONG": 27.716600418, "Data_year": "2010" }, "geometry": { "type": "Point", "coordinates": [ 27.716600417974998, -12.3391399996112 ] } },
{ "type": "Feature", "properties": { "FID": 93, "GlobalID": "35LNG859386_001", "Type": "School", "SubType": "Basic School", "Name": "Kasapa Basic School", "Orig_Name": "kasapa b sch", "Source": "ZamStats", "Province": "Copperbelt", "Prov_Code": 102, "District": "Chililabombwe", "Distr_Code": 102001, "LAT": -12.313370000100001, "LONG": 27.790899276699999, "Data_year": "2010" }, "geometry": { "type": "Point", "coordinates": [ 27.7908992766803, -12.313370000125399 ] } },
{ "type": "Feature", "properties": { "FID": 94, "GlobalID": "35LNG854431_001", "Type": "School", "SubType": "School", "Name": "N konkola School", "Orig_Name": "n konkola sch", "Source": "ZamStats", "Province": "Copperbelt", "Prov_Code": 102, "District": "Chililabombwe", "Distr_Code": 102001, "LAT": -12.27298, "LONG": 27.786100387200001, "Data_year": "2010" }, "geometry": { "type": "Point", "coordinates": [ 27.786100387223101, -12.2729800000269 ] } },
{ "type": "Feature", "properties": { "FID": 95, "GlobalID": "35LNG720356_001", "Type": "School Affiliated Infrastructure", "SubType": "Teachers Compound", "Name": "Malubeni Teachers Compound", "Orig_Name": "teachers compd", "Source": "ZamStats", "Province": "Copperbelt", "Prov_Code": 102, "District": "Chililabombwe", "Distr_Code": 102001, "LAT": -12.34104, "LONG": 27.662900924599999, "Data_year": "2010" }, "geometry": { "type": "Point", "coordinates": [ 27.662900924637999, -12.341039999995999 ] } },
{ "type": "Feature", "properties": { "FID": 96, "GlobalID": "35LNG852268_001", "Type": "School", "SubType": "Basic School", "Name": "Kanenga Basic School", "Orig_Name": "kanenga b sch", "Source": "ZamStats", "Province": "Copperbelt", "Prov_Code": 102, "District": "Chililabombwe", "Distr_Code": 102001, "LAT": -12.4201499996, "LONG": 27.784599304499999, "Data_year": "2010" }, "geometry": { "type": "Point", "coordinates": [ 27.784599304514401, -12.420149999622801 ] } },
{ "type": "Feature", "properties": { "FID": 97, "GlobalID": "35LNG719356_001", "Type": "School", "SubType": "Basic School", "Name": "Malubeni Basic School", "Orig_Name": "malubeni b sch", "Source": "ZamStats", "Province": "Copperbelt", "Prov_Code": 102, "District": "Chililabombwe", "Distr_Code": 102001, "LAT": -12.340819999700001, "LONG": 27.661899566399999, "Data_year": "2010" }, "geometry": { "type": "Point", "coordinates": [ 27.661899566411901, -12.340819999743101 ] } },
{ "type": "Feature", "properties": { "FID": 98, "GlobalID": "35LNG826304_001", "Type": "School", "SubType": "Basic School", "Name": "Miteta Basic School", "Orig_Name": "miteta b sch", "Source": "ZamStats", "Province": "Copperbelt", "Prov_Code": 102, "District": "Chililabombwe", "Distr_Code": 102001, "LAT": -12.3874400003, "LONG": 27.7605991366, "Data_year": "2010" }, "geometry": { "type": "Point", "coordinates": [ 27.760599136640899, -12.3874400002558 ] } },
{ "type": "Feature", "properties": { "FID": 99, "GlobalID": "35LNF947789_001", "Type": "School", "SubType": "Basic School", "Name": "Chati Basic School", "Orig_Name": "basic sch comp", "Source": "ZamStats", "Province": "Copperbelt", "Prov_Code": 102, "District": "Kalulushi", "Distr_Code": 102003, "LAT": -12.852730000299999, "LONG": 27.872999191200002, "Data_year": "2010" }, "geometry": { "type": "Point", "coordinates": [ 27.872999191159799, -12.852730000289201 ] } },
{ "type": "Feature", "properties": { "FID": 100, "GlobalID": "35LNF991776_001", "Type": "School", "SubType": "Middle School", "Name": "Chati Middle School", "Orig_Name": "chati mid bas", "Source": "ZamStats", "Province": "Copperbelt", "Prov_Code": 102, "District": "Kalulushi", "Distr_Code": 102003, "LAT": -12.8643100001, "LONG": 27.913799285700001, "Data_year": "2010" }, "geometry": { "type": "Point", "coordinates": [ 27.9137992857085, -12.8643100001064 ] } },
{ "type": "Feature", "properties": { "FID": 101, "GlobalID": "35LNF946789_001", "Type": "School", "SubType": "Basic School", "Name": "Kafubu Basic School", "Orig_Name": "kafubu bsch", "Source": "ZamStats", "Province": "Copperbelt", "Prov_Code": 102, "District": "Kalulushi", "Distr_Code": 102003, "LAT": -12.852679999799999, "LONG": 27.872100830499999, "Data_year": "2010" }, "geometry": { "type": "Point", "coordinates": [ 27.872100830489, -12.852679999782101 ] } },
{ "type": "Feature", "properties": { "FID": 102, "GlobalID": "35LNF953772_002", "Type": "School", "SubType": "Nursery School", "Name": "Kafubu Nursery School", "Orig_Name": "kafubu nursery", "Source": "ZamStats", "Province": "Copperbelt", "Prov_Code": 102, "District": "Kalulushi", "Distr_Code": 102003, "LAT": -12.86813, "LONG": 27.8784008027, "Data_year": "2010" }, "geometry": { "type": "Point", "coordinates": [ 27.878400802655001, -12.8681299999994 ] } },
{ "type": "Feature", "properties": { "FID": 103, "GlobalID": "35LNG351313_002", "Type": "School", "SubType": "Basic School", "Name": "Kangwena Basic School", "Orig_Name": "kangwena bsc", "Source": "ZamStats", "Province": "Copperbelt", "Prov_Code": 102, "District": "Chingola", "Distr_Code": 102002, "LAT": -12.380130000399999, "LONG": 27.3230991366, "Data_year": "2010" }, "geometry": { "type": "Point", "coordinates": [ 27.323099136615902, -12.3801300003992 ] } },
{ "type": "Feature", "properties": { "FID": 104, "GlobalID": "35LNF969763_001", "Type": "School", "SubType": "Community School", "Name": "Nkokomi Community School", "Orig_Name": "nkokomi comsc", "Source": "ZamStats", "Province": "Copperbelt", "Prov_Code": 102, "District": "Kalulushi", "Distr_Code": 102003, "LAT": -12.876199999800001, "LONG": 27.893400192200001, "Data_year": "2010" }, "geometry": { "type": "Point", "coordinates": [ 27.893400192165199, -12.876199999830099 ] } },
{ "type": "Feature", "properties": { "FID": 105, "GlobalID": "35LNF947785_001", "Type": "School Affiliated Infrastructure", "SubType": "Teachers Compound", "Name": "Kafubu Teachers Compound", "Orig_Name": "teachers comp", "Source": "ZamStats", "Province": "Copperbelt", "Prov_Code": 102, "District": "Kalulushi", "Distr_Code": 102003, "LAT": -12.856630000299999, "LONG": 27.873500824000001, "Data_year": "2010" }, "geometry": { "type": "Point", "coordinates": [ 27.873500824003901, -12.856630000274301 ] } },
{ "type": "Feature", "properties": { "FID": 106, "GlobalID": "35LNG506395_001", "Type": "School", "SubType": "School", "Name": "Ngosa School", "Orig_Name": "ngosa school", "Source": "ZamStats", "Province": "Copperbelt", "Prov_Code": 102, "District": "Chingola", "Distr_Code": 102002, "LAT": -12.3064399998, "LONG": 27.465499877599999, "Data_year": "2010" }, "geometry": { "type": "Point", "coordinates": [ 27.465499877617301, -12.3064399998061 ] } },
{ "type": "Feature", "properties": { "FID": 107, "GlobalID": "35LPG106194_001", "Type": "School", "SubType": "School", "Name": "Kamiteta School", "Orig_Name": "kamiteta sch", "Source": "ZamStats", "Province": "Copperbelt", "Prov_Code": 102, "District": "Chingola", "Distr_Code": 102002, "LAT": -12.486359999699999, "LONG": 28.0186004637, "Data_year": "2010" }, "geometry": { "type": "Point", "coordinates": [ 28.018600463740501, -12.4863599997142 ] } },
{ "type": "Feature", "properties": { "FID": 108, "GlobalID": "35LPG088155_002", "Type": "School", "SubType": "Community School", "Name": "Kambenje Community School", "Orig_Name": "kambenje c sch", "Source": "ZamStats", "Province": "Copperbelt", "Prov_Code": 102, "District": "Chingola", "Distr_Code": 102002, "LAT": -12.522069999799999, "LONG": 28.0020008089, "Data_year": "2010" }, "geometry": { "type": "Point", "coordinates": [ 28.002000808890301, -12.522069999830601 ] } },
{ "type": "Feature", "properties": { "FID": 109, "GlobalID": "35LNG935367_002", "Type": "School", "SubType": "Basic School", "Name": "Kawama Basic School", "Orig_Name": "kawama bsch", "Source": "ZamStats", "Province": "Copperbelt", "Prov_Code": 102, "District": "Chililabombwe", "Distr_Code": 102001, "LAT": -12.3307900004, "LONG": 27.860799789600001, "Data_year": "2010" }, "geometry": { "type": "Point", "coordinates": [ 27.860799789578699, -12.330790000358199 ] } },
{ "type": "Feature", "properties": { "FID": 110, "GlobalID": "35LNG440392_002", "Type": "School", "SubType": "School", "Name": "Chasoba School", "Orig_Name": "chasoba school", "Source": "ZamStats", "Province": "Copperbelt", "Prov_Code": 102, "District": "Chingola", "Distr_Code": 102002, "LAT": -12.30937, "LONG": 27.404899597499998, "Data_year": "2010" }, "geometry": { "type": "Point", "coordinates": [ 27.404899597538499, -12.3093700000254 ] } },
{ "type": "Feature", "properties": { "FID": 111, "GlobalID": "35LNG923341_001", "Type": "School", "SubType": "School", "Name": "Chiko School", "Orig_Name": "chiko school", "Source": "ZamStats", "Province": "Copperbelt", "Prov_Code": 102, "District": "Chililabombwe", "Distr_Code": 102001, "LAT": -12.354279999899999, "LONG": 27.849399566900001, "Data_year": "2010" }, "geometry": { "type": "Point", "coordinates": [ 27.849399566936501, -12.354279999921999 ] } },
{ "type": "Feature", "properties": { "FID": 112, "GlobalID": "35LNG393303_002", "Type": "School", "SubType": "Basic School", "Name": "Mutenda Basic School", "Orig_Name": "mutenda basic", "Source": "ZamStats", "Province": "Copperbelt", "Prov_Code": 102, "District": "Chingola", "Distr_Code": 102002, "LAT": -12.3899200004, "LONG": 27.361900329600001, "Data_year": "2010" }, "geometry": { "type": "Point", "coordinates": [ 27.361900329636601, -12.389920000407599 ] } },
{ "type": "Feature", "properties": { "FID": 113, "GlobalID": "35LNG392304_002", "Type": "School Affiliated Infrastructure", "SubType": "Teachers Compound", "Name": "Mutenda Teachers Compound", "Orig_Name": "school house", "Source": "ZamStats", "Province": "Copperbelt", "Prov_Code": 102, "District": "Chingola", "Distr_Code": 102002, "LAT": -12.388949999699999, "LONG": 27.361400604300002, "Data_year": "2010" }, "geometry": { "type": "Point", "coordinates": [ 27.361400604254499, -12.3889499997426 ] } },
{ "type": "Feature", "properties": { "FID": 114, "GlobalID": "35LNF871839_001", "Type": "School", "SubType": "Basic School", "Name": "Fibale Basic School", "Orig_Name": "fibale b sch", "Source": "ZamStats", "Province": "Copperbelt", "Prov_Code": 102, "District": "Kalulushi", "Distr_Code": 102003, "LAT": -12.8077600003, "LONG": 27.802700043000002, "Data_year": "2010" }, "geometry": { "type": "Point", "coordinates": [ 27.802700042972699, -12.8077600003237 ] } },
{ "type": "Feature", "properties": { "FID": 115, "GlobalID": "35LNF814793_001", "Type": "School", "SubType": "Basic School", "Name": "Filando Basic School", "Orig_Name": "filando b sch", "Source": "ZamStats", "Province": "Copperbelt", "Prov_Code": 102, "District": "Kalulushi", "Distr_Code": 102003, "LAT": -12.8495700003, "LONG": 27.7506999967, "Data_year": "2010" }, "geometry": { "type": "Point", "coordinates": [ 27.7506999967075, -12.8495700002553 ] } },
{ "type": "Feature", "properties": { "FID": 116, "GlobalID": "35LNF902816_001", "Type": "School", "SubType": "Basic School", "Name": "Kaputula Basic School", "Orig_Name": "kaputula b sch", "Source": "ZamStats", "Province": "Copperbelt", "Prov_Code": 102, "District": "Kalulushi", "Distr_Code": 102003, "LAT": -12.828940000399999, "LONG": 27.832000732200001, "Data_year": "2010" }, "geometry": { "type": "Point", "coordinates": [ 27.832000732248002, -12.828940000380699 ] } },
{ "type": "Feature", "properties": { "FID": 117, "GlobalID": "35LNF893764_002", "Type": "School", "SubType": "Basic School", "Name": "Mwanawasa Basic School", "Orig_Name": "mwanawasa b sc", "Source": "ZamStats", "Province": "Copperbelt", "Prov_Code": 102, "District": "Kalulushi", "Distr_Code": 102003, "LAT": -12.875820000299999, "LONG": 27.8236999511, "Data_year": "2010" }, "geometry": { "type": "Point", "coordinates": [ 27.8236999510919, -12.8758200002927 ] } },
{ "type": "Feature", "properties": { "FID": 118, "GlobalID": "35LNG762187_001", "Type": "School", "SubType": "School", "Name": "Kamita School", "Orig_Name": "kamita sch", "Source": "ZamStats", "Province": "Copperbelt", "Prov_Code": 102, "District": "Chingola", "Distr_Code": 102002, "LAT": -12.493780000099999, "LONG": 27.701999664700001, "Data_year": "2010" }, "geometry": { "type": "Point", "coordinates": [ 27.701999664652899, -12.493780000146799 ] } },
{ "type": "Feature", "properties": { "FID": 119, "GlobalID": "35LNF852902_001", "Type": "School", "SubType": "Community School", "Name": "Kawama Community School", "Orig_Name": "kawama com sch", "Source": "ZamStats", "Province": "Copperbelt", "Prov_Code": 102, "District": "Kalulushi", "Distr_Code": 102003, "LAT": -12.750970000300001, "LONG": 27.7849006655, "Data_year": "2010" }, "geometry": { "type": "Point", "coordinates": [ 27.7849006655333, -12.7509700002652 ] } },
{ "type": "Feature", "properties": { "FID": 120, "GlobalID": "35LNG597173_001", "Type": "School", "SubType": "School", "Name": "Chibangula School", "Orig_Name": "chibangula sch", "Source": "ZamStats", "Province": "Copperbelt", "Prov_Code": 102, "District": "Chingola", "Distr_Code": 102002, "LAT": -12.5063899998, "LONG": 27.550300598300002, "Data_year": "2010" }, "geometry": { "type": "Point", "coordinates": [ 27.550300598294001, -12.5063899997986 ] } },
{ "type": "Feature", "properties": { "FID": 121, "GlobalID": "35LNG628231_002", "Type": "School", "SubType": "School", "Name": "Chiwangula School", "Orig_Name": "chiwangula sch", "Source": "ZamStats", "Province": "Copperbelt", "Prov_Code": 102, "District": "Chingola", "Distr_Code": 102002, "LAT": -12.454459999899999, "LONG": 27.577899933000001, "Data_year": "2010" }, "geometry": { "type": "Point", "coordinates": [ 27.577899933035599, -12.454459999929 ] } },
{ "type": "Feature", "properties": { "FID": 122, "GlobalID": "35LNG954410_001", "Type": "School", "SubType": "School", "Name": "Minasoko School", "Orig_Name": "minasoko sch", "Source": "ZamStats", "Province": "Copperbelt", "Prov_Code": 102, "District": "Chililabombwe", "Distr_Code": 102001, "LAT": -12.291169999799999, "LONG": 27.877399444400002, "Data_year": "2010" }, "geometry": { "type": "Point", "coordinates": [ 27.877399444428899, -12.291169999795599 ] } },
{ "type": "Feature", "properties": { "FID": 123, "GlobalID": "35LNG830405_001", "Type": "School", "SubType": "School", "Name": "Frotas School", "Orig_Name": "frotas pvt sch", "Source": "ZamStats", "Province": "Copperbelt", "Prov_Code": 102, "District": "Chililabombwe", "Distr_Code": 102001, "LAT": -12.296139999699999, "LONG": 27.763299941900001, "Data_year": "2010" }, "geometry": { "type": "Point", "coordinates": [ 27.763299941938801, -12.2961399996612 ] } },
{ "type": "Feature", "properties": { "FID": 124, "GlobalID": "35LNG827407_003", "Type": "School", "SubType": "Basic School", "Name": "Konkola Basic School", "Orig_Name": "konkola b sch", "Source": "ZamStats", "Province": "Copperbelt", "Prov_Code": 102, "District": "Chililabombwe", "Distr_Code": 102001, "LAT": -12.295020000199999, "LONG": 27.760700225800001, "Data_year": "2010" }, "geometry": { "type": "Point", "coordinates": [ 27.7607002258348, -12.2950200001728 ] } },
{ "type": "Feature", "properties": { "FID": 125, "GlobalID": "35LPG000359_001", "Type": "School", "SubType": "School", "Name": "Lubansa School", "Orig_Name": "lubansa school", "Source": "ZamStats", "Province": "Copperbelt", "Prov_Code": 102, "District": "Chililabombwe", "Distr_Code": 102001, "LAT": -12.33751, "LONG": 27.920000076099999, "Data_year": "2010" }, "geometry": { "type": "Point", "coordinates": [ 27.9200000761426, -12.3375099999865 ] } },
{ "type": "Feature", "properties": { "FID": 126, "GlobalID": "35LNG825407_001", "Type": "School Affiliated Infrastructure", "SubType": "Teachers Compound", "Name": "Konkola Teachers Compound", "Orig_Name": "teachers comp", "Source": "ZamStats", "Province": "Copperbelt", "Prov_Code": 102, "District": "Chililabombwe", "Distr_Code": 102001, "LAT": -12.2946199997, "LONG": 27.759300232299999, "Data_year": "2010" }, "geometry": { "type": "Point", "coordinates": [ 27.759300232319902, -12.2946199997132 ] } },
{ "type": "Feature", "properties": { "FID": 127, "GlobalID": "35LNG473232_002", "Type": "School", "SubType": "School", "Name": "Chamakubi School", "Orig_Name": "chamakubi sch", "Source": "ZamStats", "Province": "Copperbelt", "Prov_Code": 102, "District": "Chingola", "Distr_Code": 102002, "LAT": -12.4531699998, "LONG": 27.435400009399999, "Data_year": "2010" }, "geometry": { "type": "Point", "coordinates": [ 27.435400009402901, -12.4531699997956 ] } },
{ "type": "Feature", "properties": { "FID": 128, "GlobalID": "35LNG944228_002", "Type": "School", "SubType": "Middle School", "Name": "Fitobaula Middle School", "Orig_Name": "fitobaula m sh", "Source": "ZamStats", "Province": "Copperbelt", "Prov_Code": 102, "District": "Chililabombwe", "Distr_Code": 102001, "LAT": -12.4559799999, "LONG": 27.869199752499998, "Data_year": "2010" }, "geometry": { "type": "Point", "coordinates": [ 27.869199752466699, -12.455979999877099 ] } },
{ "type": "Feature", "properties": { "FID": 129, "GlobalID": "35LNG564198_002", "Type": "School", "SubType": "Basic School", "Name": "Muchinshi Basic School", "Orig_Name": "muchinshi b sc", "Source": "ZamStats", "Province": "Copperbelt", "Prov_Code": 102, "District": "Chingola", "Distr_Code": 102002, "LAT": -12.4845099998, "LONG": 27.519800186400001, "Data_year": "2010" }, "geometry": { "type": "Point", "coordinates": [ 27.519800186429499, -12.4845099998366 ] } },
{ "type": "Feature", "properties": { "FID": 130, "GlobalID": "35LNG521327_002", "Type": "School", "SubType": "School", "Name": "Twampane School", "Orig_Name": "twampane sch", "Source": "ZamStats", "Province": "Copperbelt", "Prov_Code": 102, "District": "Chingola", "Distr_Code": 102002, "LAT": -12.367940000300001, "LONG": 27.47990036, "Data_year": "2010" }, "geometry": { "type": "Point", "coordinates": [ 27.479900360013598, -12.3679400003307 ] } },
{ "type": "Feature", "properties": { "FID": 131, "GlobalID": "35LPG141229_002", "Type": "School", "SubType": "School", "Name": "Fipimpili School", "Orig_Name": "fipimpili sch", "Source": "ZamStats", "Province": "Copperbelt", "Prov_Code": 102, "District": "Chililabombwe", "Distr_Code": 102001, "LAT": -12.454640000099999, "LONG": 28.0503005982, "Data_year": "2010" }, "geometry": { "type": "Point", "coordinates": [ 28.050300598194099, -12.4546400001358 ] } },
{ "type": "Feature", "properties": { "FID": 132, "GlobalID": "35LPG081081_002", "Type": "School", "SubType": "Basic School", "Name": "Luano Basic School", "Orig_Name": "luano m b sch", "Source": "ZamStats", "Province": "Copperbelt", "Prov_Code": 102, "District": "Chingola", "Distr_Code": 102002, "LAT": -12.5889599998, "LONG": 27.995700835800001, "Data_year": "2010" }, "geometry": { "type": "Point", "coordinates": [ 27.995700835824898, -12.5889599998041 ] } },
{ "type": "Feature", "properties": { "FID": 133, "GlobalID": "35LPG125093_002", "Type": "School", "SubType": "Community School", "Name": "Mbai Community School", "Orig_Name": "mbai comm sch", "Source": "ZamStats", "Province": "Copperbelt", "Prov_Code": 102, "District": "Chingola", "Distr_Code": 102002, "LAT": -12.5780399998, "LONG": 28.035900115800001, "Data_year": "2010" }, "geometry": { "type": "Point", "coordinates": [ 28.035900115797698, -12.5780399998461 ] } },
{ "type": "Feature", "properties": { "FID": 134, "GlobalID": "35LPG026346_002", "Type": "School", "SubType": "School", "Name": "Milyashi School", "Orig_Name": "milyashi sch", "Source": "ZamStats", "Province": "Copperbelt", "Prov_Code": 102, "District": "Chililabombwe", "Distr_Code": 102001, "LAT": -12.3491899999, "LONG": 27.944499969399999, "Data_year": "2010" }, "geometry": { "type": "Point", "coordinates": [ 27.944499969398102, -12.349189999918501 ] } },
{ "type": "Feature", "properties": { "FID": 135, "GlobalID": "35LPG039071_002", "Type": "School", "SubType": "Basic School", "Name": "Musenga Basic School", "Orig_Name": "musenga mb sch", "Source": "ZamStats", "Province": "Copperbelt", "Prov_Code": 102, "District": "Chingola", "Distr_Code": 102002, "LAT": -12.5980600004, "LONG": 27.956699371, "Data_year": "2010" }, "geometry": { "type": "Point", "coordinates": [ 27.956699370979301, -12.598060000368701 ] } },
{ "type": "Feature", "properties": { "FID": 136, "GlobalID": "35LPG039070_001", "Type": "School Affiliated Infrastructure", "SubType": "School Compound", "Name": "Musenga School Compound", "Orig_Name": "school comp", "Source": "ZamStats", "Province": "Copperbelt", "Prov_Code": 102, "District": "Chingola", "Distr_Code": 102002, "LAT": -12.5983399998, "LONG": 27.957099914600001, "Data_year": "2010" }, "geometry": { "type": "Point", "coordinates": [ 27.957099914629399, -12.598339999791101 ] } },
{ "type": "Feature", "properties": { "FID": 137, "GlobalID": "35LNG683379_002", "Type": "School", "SubType": "School", "Name": "Chimfunshi School", "Orig_Name": "chimfunshi sch", "Source": "ZamStats", "Province": "Copperbelt", "Prov_Code": 102, "District": "Chililabombwe", "Distr_Code": 102001, "LAT": -12.3206100004, "LONG": 27.628200531299999, "Data_year": "2010" }, "geometry": { "type": "Point", "coordinates": [ 27.628200531329501, -12.3206100003512 ] } },
{ "type": "Feature", "properties": { "FID": 138, "GlobalID": "35LNG770122_001", "Type": "School", "SubType": "Basic School", "Name": "G mwewa Basic School", "Orig_Name": "g mwewa mb sch", "Source": "ZamStats", "Province": "Copperbelt", "Prov_Code": 102, "District": "Chingola", "Distr_Code": 102002, "LAT": -12.5525400002, "LONG": 27.709100723199999, "Data_year": "2010" }, "geometry": { "type": "Point", "coordinates": [ 27.709100723219901, -12.5525400002208 ] } },
{ "type": "Feature", "properties": { "FID": 139, "GlobalID": "35LNG838195_002", "Type": "School", "SubType": "Basic School", "Name": "Kalilo Basic School", "Orig_Name": "kalilo basic", "Source": "ZamStats", "Province": "Copperbelt", "Prov_Code": 102, "District": "Chingola", "Distr_Code": 102002, "LAT": -12.4862900001, "LONG": 27.771900176700001, "Data_year": "2010" }, "geometry": { "type": "Point", "coordinates": [ 27.771900176651901, -12.4862900000834 ] } },
{ "type": "Feature", "properties": { "FID": 140, "GlobalID": "35LNG814130_002", "Type": "School", "SubType": "Basic School", "Name": "Luankole Basic School", "Orig_Name": "luankole basic", "Source": "ZamStats", "Province": "Copperbelt", "Prov_Code": 102, "District": "Chingola", "Distr_Code": 102002, "LAT": -12.5454800002, "LONG": 27.749799728599999, "Data_year": "2010" }, "geometry": { "type": "Point", "coordinates": [ 27.7497997285747, -12.545480000201801 ] } },
{ "type": "Feature", "properties": { "FID": 141, "GlobalID": "35LNG697340_001", "Type": "School", "SubType": "School", "Name": "Namubwela School", "Orig_Name": "namubwela sch", "Source": "ZamStats", "Province": "Copperbelt", "Prov_Code": 102, "District": "Chililabombwe", "Distr_Code": 102001, "LAT": -12.3557199998, "LONG": 27.6417007447, "Data_year": "2010" }, "geometry": { "type": "Point", "coordinates": [ 27.641700744693701, -12.355719999778101 ] } },
{ "type": "Feature", "properties": { "FID": 142, "GlobalID": "35LNG804219_001", "Type": "School", "SubType": "School", "Name": "School", "Orig_Name": "new sch", "Source": "ZamStats", "Province": "Copperbelt", "Prov_Code": 102, "District": "Chingola", "Distr_Code": 102002, "LAT": -12.464639999899999, "LONG": 27.740600585799999, "Data_year": "2010" }, "geometry": { "type": "Point", "coordinates": [ 27.740600585848401, -12.464639999936001 ] } },
{ "type": "Feature", "properties": { "FID": 143, "GlobalID": "35LNG839234_001", "Type": "School Affiliated Infrastructure", "SubType": "School Compound", "Name": "School Compound", "Orig_Name": "sch", "Source": "ZamStats", "Province": "Copperbelt", "Prov_Code": 102, "District": "Chingola", "Distr_Code": 102002, "LAT": -12.451039999600001, "LONG": 27.772199631100001, "Data_year": "2010" }, "geometry": { "type": "Point", "coordinates": [ 27.772199631108201, -12.451039999596301 ] } },
{ "type": "Feature", "properties": { "FID": 144, "GlobalID": "35LNG884206_001", "Type": "School", "SubType": "School", "Name": "Shimulala School", "Orig_Name": "shimulala sch", "Source": "ZamStats", "Province": "Copperbelt", "Prov_Code": 102, "District": "Chingola", "Distr_Code": 102002, "LAT": -12.4766299998, "LONG": 27.8141002656, "Data_year": "2010" }, "geometry": { "type": "Point", "coordinates": [ 27.814100265614801, -12.4766299997746 ] } },
{ "type": "Feature", "properties": { "FID": 145, "GlobalID": "35LNG685379_001", "Type": "School Affiliated Infrastructure", "SubType": "Teachers Compound", "Name": "Chimfunshi Teachers Compound", "Orig_Name": "teachers comp", "Source": "ZamStats", "Province": "Copperbelt", "Prov_Code": 102, "District": "Chililabombwe", "Distr_Code": 102001, "LAT": -12.32072, "LONG": 27.630199432000001, "Data_year": "2010" }, "geometry": { "type": "Point", "coordinates": [ 27.6301994319583, -12.320720000027899 ] } },
{ "type": "Feature", "properties": { "FID": 146, "GlobalID": "35LNG817168_001", "Type": "School", "SubType": "School", "Name": "Brickfield School", "Orig_Name": "brickfield sch", "Source": "ZamStats", "Province": "Copperbelt", "Prov_Code": 102, "District": "Chingola", "Distr_Code": 102002, "LAT": -12.5109699997, "LONG": 27.752599716500001, "Data_year": "2010" }, "geometry": { "type": "Point", "coordinates": [ 27.752599716503799, -12.510969999665701 ] } },
{ "type": "Feature", "properties": { "FID": 147, "GlobalID": "35LNG637321_001", "Type": "School", "SubType": "School", "Name": "Butumba School", "Orig_Name": "butumba sch", "Source": "ZamStats", "Province": "Copperbelt", "Prov_Code": 102, "District": "Chililabombwe", "Distr_Code": 102001, "LAT": -12.3727900001, "LONG": 27.586799621299999, "Data_year": "2010" }, "geometry": { "type": "Point", "coordinates": [ 27.586799621305499, -12.3727900000584 ] } },
{ "type": "Feature", "properties": { "FID": 148, "GlobalID": "35LNG689269_001", "Type": "School", "SubType": "School", "Name": "Chankwashi School", "Orig_Name": "chankwashi sch", "Source": "ZamStats", "Province": "Copperbelt", "Prov_Code": 102, "District": "Chililabombwe", "Distr_Code": 102001, "LAT": -12.4198500002, "LONG": 27.634300231699999, "Data_year": "2010" }, "geometry": { "type": "Point", "coordinates": [ 27.634300231670402, -12.4198500001773 ] } },
{ "type": "Feature", "properties": { "FID": 149, "GlobalID": "35LNG634353_001", "Type": "School", "SubType": "School", "Name": "River bnd School", "Orig_Name": "river bnd sch", "Source": "ZamStats", "Province": "Copperbelt", "Prov_Code": 102, "District": "Chililabombwe", "Distr_Code": 102001, "LAT": -12.3439399997, "LONG": 27.583900451600002, "Data_year": "2010" }, "geometry": { "type": "Point", "coordinates": [ 27.583900451644599, -12.3439399997312 ] } },
{ "type": "Feature", "properties": { "FID": 150, "GlobalID": "35LNG987225_001", "Type": "School", "SubType": "School", "Name": "Fikolongo School", "Orig_Name": "fikolongo sch", "Source": "ZamStats", "Province": "Copperbelt", "Prov_Code": 102, "District": "Chililabombwe", "Distr_Code": 102001, "LAT": -12.458910000099999, "LONG": 27.9083003999, "Data_year": "2010" }, "geometry": { "type": "Point", "coordinates": [ 27.908300399943499, -12.458910000096401 ] } },
{ "type": "Feature", "properties": { "FID": 151, "GlobalID": "35LPF602547_002", "Type": "School", "SubType": "Community School", "Name": "Kapepa Community School", "Orig_Name": "kapepa f c sch", "Source": "ZamStats", "Province": "Copperbelt", "Prov_Code": 102, "District": "Luanshya", "Distr_Code": 102005, "LAT": -13.068960000100001, "LONG": 28.4783000945, "Data_year": "2010" }, "geometry": { "type": "Point", "coordinates": [ 28.478300094473799, -13.0689600001039 ] } },
{ "type": "Feature", "properties": { "FID": 152, "GlobalID": "35LPF522538_001", "Type": "School", "SubType": "School", "Name": "Kapupulu School", "Orig_Name": "kapupulu sch", "Source": "ZamStats", "Province": "Copperbelt", "Prov_Code": 102, "District": "Luanshya", "Distr_Code": 102005, "LAT": -13.0776000001, "LONG": 28.404699325500001, "Data_year": "2010" }, "geometry": { "type": "Point", "coordinates": [ 28.404699325513501, -13.077600000139901 ] } },
{ "type": "Feature", "properties": { "FID": 153, "GlobalID": "35LPF534569_001", "Type": "School Affiliated Infrastructure", "SubType": "School Compound", "Name": "School Compound", "Orig_Name": "sch compound", "Source": "ZamStats", "Province": "Copperbelt", "Prov_Code": 102, "District": "Luanshya", "Distr_Code": 102005, "LAT": -13.049850000199999, "LONG": 28.415500641000001, "Data_year": "2010" }, "geometry": { "type": "Point", "coordinates": [ 28.415500641041799, -13.049850000177299 ] } },
{ "type": "Feature", "properties": { "FID": 154, "GlobalID": "35LNF854206_001", "Type": "School", "SubType": "Community School", "Name": "Chilwa Community School", "Orig_Name": "chilwa com sch", "Source": "ZamStats", "Province": "Copperbelt", "Prov_Code": 102, "District": "Lufwanyama", "Distr_Code": 102006, "LAT": -13.380055000300001, "LONG": 27.788718130199999, "Data_year": "2010" }, "geometry": { "type": "Point", "coordinates": [ 27.788718130237601, -13.380055000338 ] } },
{ "type": "Feature", "properties": { "FID": 155, "GlobalID": "35LNF783239_001", "Type": "School", "SubType": "School", "Name": "Lumpuma a School", "Orig_Name": "lumpuma a sch", "Source": "ZamStats", "Province": "Copperbelt", "Prov_Code": 102, "District": "Lufwanyama", "Distr_Code": 102006, "LAT": -13.3505469301, "LONG": 27.723307770400002, "Data_year": "2010" }, "geometry": { "type": "Point", "coordinates": [ 27.723307770437302, -13.3505469300967 ] } },
{ "type": "Feature", "properties": { "FID": 156, "GlobalID": "35LNF433507_001", "Type": "School", "SubType": "Community School", "Name": "Wangibisha Community School", "Orig_Name": "wangibisha com", "Source": "ZamStats", "Province": "Copperbelt", "Prov_Code": 102, "District": "Lufwanyama", "Distr_Code": 102006, "LAT": -13.10928742, "LONG": 27.399620540299999, "Data_year": "2010" }, "geometry": { "type": "Point", "coordinates": [ 27.3996205402558, -13.109287419978401 ] } },
{ "type": "Feature", "properties": { "FID": 157, "GlobalID": "35LPF185389_001", "Type": "School", "SubType": "Community School", "Name": "Community School", "Orig_Name": "com school", "Source": "ZamStats", "Province": "Copperbelt", "Prov_Code": 102, "District": "Lufwanyama", "Distr_Code": 102006, "LAT": -13.214351559800001, "LONG": 28.0936457301, "Data_year": "2010" }, "geometry": { "type": "Point", "coordinates": [ 28.093645730066399, -13.214351559776601 ] } },
{ "type": "Feature", "properties": { "FID": 158, "GlobalID": "35LPF131401_001", "Type": "School", "SubType": "School", "Name": "Komena School", "Orig_Name": "komena school", "Source": "ZamStats", "Province": "Copperbelt", "Prov_Code": 102, "District": "Lufwanyama", "Distr_Code": 102006, "LAT": -13.203687520400001, "LONG": 28.043784220399999, "Data_year": "2010" }, "geometry": { "type": "Point", "coordinates": [ 28.043784220365499, -13.203687520362701 ] } },
{ "type": "Feature", "properties": { "FID": 159, "GlobalID": "35LPF053417_001", "Type": "School", "SubType": "Community School", "Name": "Luntunw Community School", "Orig_Name": "luntunw com sc", "Source": "ZamStats", "Province": "Copperbelt", "Prov_Code": 102, "District": "Lufwanyama", "Distr_Code": 102006, "LAT": -13.188741500200001, "LONG": 27.97248784, "Data_year": "2010" }, "geometry": { "type": "Point", "coordinates": [ 27.972487840041801, -13.188741500220001 ] } },
{ "type": "Feature", "properties": { "FID": 160, "GlobalID": "35LPF054630_002", "Type": "School", "SubType": "Basic School", "Name": "Masasa Basic School", "Orig_Name": "masasa basic s", "Source": "ZamStats", "Province": "Copperbelt", "Prov_Code": 102, "District": "Lufwanyama", "Distr_Code": 102006, "LAT": -12.9969144297, "LONG": 27.972633510400001, "Data_year": "2010" }, "geometry": { "type": "Point", "coordinates": [ 27.972633510428199, -12.996914429657201 ] } },
{ "type": "Feature", "properties": { "FID": 161, "GlobalID": "35LPF169299_002", "Type": "School", "SubType": "Basic School", "Name": "Mukumbo Basic School", "Orig_Name": "mukumbo basic", "Source": "ZamStats", "Province": "Copperbelt", "Prov_Code": 102, "District": "Lufwanyama", "Distr_Code": 102006, "LAT": -13.2957464597, "LONG": 28.0798047798, "Data_year": "2010" }, "geometry": { "type": "Point", "coordinates": [ 28.0798047797668, -13.2957464597313 ] } },
{ "type": "Feature", "properties": { "FID": 162, "GlobalID": "35LPF169298_001", "Type": "School Affiliated Infrastructure", "SubType": "Teachers Compound", "Name": "Mukumbo Teachers Compound", "Orig_Name": "teachers hses", "Source": "ZamStats", "Province": "Copperbelt", "Prov_Code": 102, "District": "Lufwanyama", "Distr_Code": 102006, "LAT": -13.2961364696, "LONG": 28.079248809900001, "Data_year": "2010" }, "geometry": { "type": "Point", "coordinates": [ 28.0792488098847, -13.2961364696224 ] } },
{ "type": "Feature", "properties": { "FID": 163, "GlobalID": "35LMF922821_001", "Type": "School", "SubType": "Community School", "Name": "Chituba Community School", "Orig_Name": "chituba com sc", "Source": "ZamStats", "Province": "Copperbelt", "Prov_Code": 102, "District": "Lufwanyama", "Distr_Code": 102006, "LAT": -12.8256499404, "LONG": 26.928740730299999, "Data_year": "2010" }, "geometry": { "type": "Point", "coordinates": [ 26.9287407303005, -12.825649940392401 ] } },
{ "type": "Feature", "properties": { "FID": 164, "GlobalID": "35LNF427715_001", "Type": "School", "SubType": "Community School", "Name": "Comunity Community School", "Orig_Name": "comunity sch", "Source": "ZamStats", "Province": "Copperbelt", "Prov_Code": 102, "District": "Lufwanyama", "Distr_Code": 102006, "LAT": -12.9212112598, "LONG": 27.393973490299999, "Data_year": "2010" }, "geometry": { "type": "Point", "coordinates": [ 27.393973490284399, -12.921211259791701 ] } },
{ "type": "Feature", "properties": { "FID": 165, "GlobalID": "35LNF402745_002", "Type": "School Affiliated Infrastructure", "SubType": "Dormitory", "Name": "St marys Dormitory", "Orig_Name": "dorms", "Source": "ZamStats", "Province": "Copperbelt", "Prov_Code": 102, "District": "Lufwanyama", "Distr_Code": 102006, "LAT": -12.8937805596, "LONG": 27.370779169799999, "Data_year": "2010" }, "geometry": { "type": "Point", "coordinates": [ 27.370779169822899, -12.8937805596251 ] } },
{ "type": "Feature", "properties": { "FID": 166, "GlobalID": "35LNF473716_002", "Type": "School", "SubType": "Basic School", "Name": "Kantende Basic School", "Orig_Name": "kantende b sch", "Source": "ZamStats", "Province": "Copperbelt", "Prov_Code": 102, "District": "Lufwanyama", "Distr_Code": 102006, "LAT": -12.9202330096, "LONG": 27.436567299699998, "Data_year": "2010" }, "geometry": { "type": "Point", "coordinates": [ 27.4365672997411, -12.9202330096456 ] } },
{ "type": "Feature", "properties": { "FID": 167, "GlobalID": "35LNF570839_001", "Type": "School", "SubType": "Basic School", "Name": "Lufnya Basic School", "Orig_Name": "lufnya b sch", "Source": "ZamStats", "Province": "Copperbelt", "Prov_Code": 102, "District": "Lufwanyama", "Distr_Code": 102006, "LAT": -12.808984369699999, "LONG": 27.525428550299999, "Data_year": "2010" }, "geometry": { "type": "Point", "coordinates": [ 27.525428550287401, -12.808984369732901 ] } },
{ "type": "Feature", "properties": { "FID": 168, "GlobalID": "35LNF403745_002", "Type": "School", "SubType": "Basic School", "Name": "St marys Basic School", "Orig_Name": "st marys basic", "Source": "ZamStats", "Province": "Copperbelt", "Prov_Code": 102, "District": "Lufwanyama", "Distr_Code": 102006, "LAT": -12.8939292598, "LONG": 27.37159573, "Data_year": "2010" }, "geometry": { "type": "Point", "coordinates": [ 27.371595729959001, -12.8939292598274 ] } },
{ "type": "Feature", "properties": { "FID": 169, "GlobalID": "35LNF401743_001", "Type": "School Affiliated Infrastructure", "SubType": "Teachers Compound", "Name": "St marys Teachers Compound B", "Orig_Name": "teacher camp b", "Source": "ZamStats", "Province": "Copperbelt", "Prov_Code": 102, "District": "Lufwanyama", "Distr_Code": 102006, "LAT": -12.896088600400001, "LONG": 27.370506589800002, "Data_year": "2010" }, "geometry": { "type": "Point", "coordinates": [ 27.370506589807299, -12.8960886004085 ] } },
{ "type": "Feature", "properties": { "FID": 170, "GlobalID": "35LNF474716_002", "Type": "School Affiliated Infrastructure", "SubType": "Teachers Compound", "Name": "Kantende Teachers Compound", "Orig_Name": "teachers compo", "Source": "ZamStats", "Province": "Copperbelt", "Prov_Code": 102, "District": "Lufwanyama", "Distr_Code": 102006, "LAT": -12.920335269800001, "LONG": 27.437020090400001, "Data_year": "2010" }, "geometry": { "type": "Point", "coordinates": [ 27.4370200904049, -12.9203352697568 ] } },
{ "type": "Feature", "properties": { "FID": 171, "GlobalID": "35LNF183635_001", "Type": "School", "SubType": "Community School", "Name": "Chananda Community School", "Orig_Name": "chananda c sch", "Source": "ZamStats", "Province": "Copperbelt", "Prov_Code": 102, "District": "Lufwanyama", "Distr_Code": 102006, "LAT": -12.993928800100001, "LONG": 27.1694576704, "Data_year": "2010" }, "geometry": { "type": "Point", "coordinates": [ 27.1694576704352, -12.993928800074 ] } },
{ "type": "Feature", "properties": { "FID": 172, "GlobalID": "35LNF048706_002", "Type": "School", "SubType": "Basic School", "Name": "Mngashi Basic School", "Orig_Name": "mngashi b sch", "Source": "ZamStats", "Province": "Copperbelt", "Prov_Code": 102, "District": "Lufwanyama", "Distr_Code": 102006, "LAT": -12.9298917302, "LONG": 27.044570329700001, "Data_year": "2010" }, "geometry": { "type": "Point", "coordinates": [ 27.044570329657098, -12.929891730219101 ] } },
{ "type": "Feature", "properties": { "FID": 173, "GlobalID": "35LMF957714_002", "Type": "School", "SubType": "Middle School", "Name": "Kakema Middle School", "Orig_Name": "kakema mbsch", "Source": "ZamStats", "Province": "Copperbelt", "Prov_Code": 102, "District": "Lufwanyama", "Distr_Code": 102006, "LAT": -12.9221300899, "LONG": 26.961216330399999, "Data_year": "2010" }, "geometry": { "type": "Point", "coordinates": [ 26.9612163303694, -12.9221300899317 ] } },
{ "type": "Feature", "properties": { "FID": 174, "GlobalID": "35LNF549430_001", "Type": "School", "SubType": "Community School", "Name": "Chipese Community School", "Orig_Name": "chipese c sch", "Source": "ZamStats", "Province": "Copperbelt", "Prov_Code": 102, "District": "Lufwanyama", "Distr_Code": 102006, "LAT": -13.1788518598, "LONG": 27.507535119900002, "Data_year": "2010" }, "geometry": { "type": "Point", "coordinates": [ 27.5075351199499, -13.1788518598254 ] } },
{ "type": "Feature", "properties": { "FID": 175, "GlobalID": "35LNG675116_002", "Type": "School", "SubType": "Middle School", "Name": "Milopa Middle School", "Orig_Name": "milopa mid bsc", "Source": "ZamStats", "Province": "Copperbelt", "Prov_Code": 102, "District": "Lufwanyama", "Distr_Code": 102006, "LAT": -12.558114849900001, "LONG": 27.6219303303, "Data_year": "2010" }, "geometry": { "type": "Point", "coordinates": [ 27.621930330320499, -12.558114849920299 ] } },
{ "type": "Feature", "properties": { "FID": 176, "GlobalID": "35LNG774078_001", "Type": "School", "SubType": "Basic School", "Name": "Ndashe Basic School", "Orig_Name": "ndashe basic", "Source": "ZamStats", "Province": "Copperbelt", "Prov_Code": 102, "District": "Chingola", "Distr_Code": 102002, "LAT": -12.59196298, "LONG": 27.712888479699998, "Data_year": "2010" }, "geometry": { "type": "Point", "coordinates": [ 27.712888479719599, -12.5919629800075 ] } },
{ "type": "Feature", "properties": { "FID": 177, "GlobalID": "35LNF489426_002", "Type": "School", "SubType": "Basic School", "Name": "Fungulwe Basic School", "Orig_Name": "fungulwe b sch", "Source": "ZamStats", "Province": "Copperbelt", "Prov_Code": 102, "District": "Lufwanyama", "Distr_Code": 102006, "LAT": -13.182190199900001, "LONG": 27.452101650100001, "Data_year": "2010" }, "geometry": { "type": "Point", "coordinates": [ 27.4521016500711, -13.1821901999177 ] } },
{ "type": "Feature", "properties": { "FID": 178, "GlobalID": "35LNG699075_001", "Type": "School", "SubType": "School", "Name": "Kanwabatemi School", "Orig_Name": "kanwabatemi sh", "Source": "ZamStats", "Province": "Copperbelt", "Prov_Code": 102, "District": "Lufwanyama", "Distr_Code": 102006, "LAT": -12.595370559799999, "LONG": 27.6440785, "Data_year": "2010" }, "geometry": { "type": "Point", "coordinates": [ 27.6440785000228, -12.595370559803399 ] } },
{ "type": "Feature", "properties": { "FID": 179, "GlobalID": "35LNG650016_001", "Type": "School", "SubType": "Basic School", "Name": "Mubendem Basic School", "Orig_Name": "mubendem b sc", "Source": "ZamStats", "Province": "Copperbelt", "Prov_Code": 102, "District": "Lufwanyama", "Distr_Code": 102006, "LAT": -12.6490287401, "LONG": 27.59933062, "Data_year": "2010" }, "geometry": { "type": "Point", "coordinates": [ 27.5993306200122, -12.6490287400842 ] } },
{ "type": "Feature", "properties": { "FID": 180, "GlobalID": "35LNG687121_001", "Type": "School", "SubType": "Basic School", "Name": "Ngosa Basic School", "Orig_Name": "ngosa m b sch", "Source": "ZamStats", "Province": "Copperbelt", "Prov_Code": 102, "District": "Lufwanyama", "Distr_Code": 102006, "LAT": -12.5531465597, "LONG": 27.633191749800002, "Data_year": "2010" }, "geometry": { "type": "Point", "coordinates": [ 27.633191749799401, -12.553146559665899 ] } },
{ "type": "Feature", "properties": { "FID": 181, "GlobalID": "35LNG676116_001", "Type": "School Affiliated Infrastructure", "SubType": "Teachers Compound", "Name": "Ngosa Teachers Compound", "Orig_Name": "teacher  comp", "Source": "ZamStats", "Province": "Copperbelt", "Prov_Code": 102, "District": "Lufwanyama", "Distr_Code": 102006, "LAT": -12.557873280300001, "LONG": 27.6230006899, "Data_year": "2010" }, "geometry": { "type": "Point", "coordinates": [ 27.623000689929899, -12.5578732803276 ] } },
{ "type": "Feature", "properties": { "FID": 182, "GlobalID": "35LNG653015_001", "Type": "School Affiliated Infrastructure", "SubType": "Teachers Compound", "Name": "Mubendem Teachers Compound", "Orig_Name": "teacher comp", "Source": "ZamStats", "Province": "Copperbelt", "Prov_Code": 102, "District": "Lufwanyama", "Distr_Code": 102006, "LAT": -12.6493138899, "LONG": 27.6016440199, "Data_year": "2010" }, "geometry": { "type": "Point", "coordinates": [ 27.601644019855701, -12.649313889924001 ] } },
{ "type": "Feature", "properties": { "FID": 183, "GlobalID": "35LNF489426_003", "Type": "School Affiliated Infrastructure", "SubType": "Teachers Compound", "Name": "Fungulwe Teachers Compound", "Orig_Name": "teachers comp", "Source": "ZamStats", "Province": "Copperbelt", "Prov_Code": 102, "District": "Lufwanyama", "Distr_Code": 102006, "LAT": -13.18256923, "LONG": 27.4516841497, "Data_year": "2010" }, "geometry": { "type": "Point", "coordinates": [ 27.451684149703802, -13.1825692299859 ] } },
{ "type": "Feature", "properties": { "FID": 184, "GlobalID": "35LNF801909_002", "Type": "School", "SubType": "School", "Name": "Chisangwa School", "Orig_Name": "chisangwa sch", "Source": "ZamStats", "Province": "Copperbelt", "Prov_Code": 102, "District": "Lufwanyama", "Distr_Code": 102006, "LAT": -12.7450221496, "LONG": 27.73872728, "Data_year": "2010" }, "geometry": { "type": "Point", "coordinates": [ 27.738727280039999, -12.745022149552501 ] } },
{ "type": "Feature", "properties": { "FID": 185, "GlobalID": "35LNF653904_001", "Type": "School", "SubType": "School", "Name": "School", "Orig_Name": "comm school", "Source": "ZamStats", "Province": "Copperbelt", "Prov_Code": 102, "District": "Lufwanyama", "Distr_Code": 102006, "LAT": -12.749957330399999, "LONG": 27.6024349403, "Data_year": "2010" }, "geometry": { "type": "Point", "coordinates": [ 27.6024349403203, -12.749957330366399 ] } },
{ "type": "Feature", "properties": { "FID": 186, "GlobalID": "35LNG441169_001", "Type": "School", "SubType": "Community School", "Name": "Kasamba Community School", "Orig_Name": "kasamba com sc", "Source": "ZamStats", "Province": "Copperbelt", "Prov_Code": 102, "District": "Lufwanyama", "Distr_Code": 102006, "LAT": -12.510288540199999, "LONG": 27.40609967, "Data_year": "2010" }, "geometry": { "type": "Point", "coordinates": [ 27.406099669963901, -12.5102885401839 ] } },
{ "type": "Feature", "properties": { "FID": 187, "GlobalID": "35LNG578110_001", "Type": "School", "SubType": "Basic School", "Name": "Milulu Basic School", "Orig_Name": "milulu b sch", "Source": "ZamStats", "Province": "Copperbelt", "Prov_Code": 102, "District": "Lufwanyama", "Distr_Code": 102006, "LAT": -12.5633960296, "LONG": 27.5329001799, "Data_year": "2010" }, "geometry": { "type": "Point", "coordinates": [ 27.532900179899499, -12.563396029603 ] } },
{ "type": "Feature", "properties": { "FID": 188, "GlobalID": "35LNF532845_001", "Type": "School", "SubType": "Community School", "Name": "Community School", "Orig_Name": "plt  comm sch", "Source": "ZamStats", "Province": "Copperbelt", "Prov_Code": 102, "District": "Lufwanyama", "Distr_Code": 102006, "LAT": -12.8037826398, "LONG": 27.491058979799998, "Data_year": "2010" }, "geometry": { "type": "Point", "coordinates": [ 27.4910589797881, -12.8037826397569 ] } },
{ "type": "Feature", "properties": { "FID": 189, "GlobalID": "35LNG087301_001", "Type": "School", "SubType": "School", "Name": "Kyeya School", "Orig_Name": "kyeya school", "Source": "ZamStats", "Province": "Copperbelt", "Prov_Code": 102, "District": "Lufwanyama", "Distr_Code": 102006, "LAT": -12.3919567697, "LONG": 27.080484019899998, "Data_year": "2010" }, "geometry": { "type": "Point", "coordinates": [ 27.080484019921599, -12.3919567696891 ] } },
{ "type": "Feature", "properties": { "FID": 190, "GlobalID": "35LPF185506_001", "Type": "School", "SubType": "School", "Name": "Grizzly School", "Orig_Name": "grizzly school", "Source": "ZamStats", "Province": "Copperbelt", "Prov_Code": 102, "District": "Lufwanyama", "Distr_Code": 102006, "LAT": -13.1084545102, "LONG": 28.0935013898, "Data_year": "2010" }, "geometry": { "type": "Point", "coordinates": [ 28.093501389777401, -13.108454510167499 ] } },
{ "type": "Feature", "properties": { "FID": 191, "GlobalID": "35LPF097278_001", "Type": "School", "SubType": "Community School", "Name": "Kapata Community School", "Orig_Name": "kapata com sch", "Source": "ZamStats", "Province": "Copperbelt", "Prov_Code": 102, "District": "Lufwanyama", "Distr_Code": 102006, "LAT": -13.314234430100001, "LONG": 28.013316419700001, "Data_year": "2010" }, "geometry": { "type": "Point", "coordinates": [ 28.0133164197171, -13.314234430074899 ] } },
{ "type": "Feature", "properties": { "FID": 192, "GlobalID": "35LNG172349_001", "Type": "School", "SubType": "Basic School", "Name": "Kingovwa Basic School", "Orig_Name": "kingovwa bs sc", "Source": "ZamStats", "Province": "Copperbelt", "Prov_Code": 102, "District": "Lufwanyama", "Distr_Code": 102006, "LAT": -12.3476739201, "LONG": 27.1590596703, "Data_year": "2010" }, "geometry": { "type": "Point", "coordinates": [ 27.159059670267599, -12.3476739201153 ] } },
{ "type": "Feature", "properties": { "FID": 193, "GlobalID": "35LNG292264_001", "Type": "School", "SubType": "Basic School", "Name": "Fipansa Basic School", "Orig_Name": "fipansa m b sc", "Source": "ZamStats", "Province": "Copperbelt", "Prov_Code": 102, "District": "Lufwanyama", "Distr_Code": 102006, "LAT": -12.425035449699999, "LONG": 27.2692103702, "Data_year": "2010" }, "geometry": { "type": "Point", "coordinates": [ 27.269210370162501, -12.425035449726201 ] } },
{ "type": "Feature", "properties": { "FID": 194, "GlobalID": "35LNF957629_001", "Type": "School", "SubType": "Community School", "Name": "Fipokula Community School", "Orig_Name": "fipokula co sc", "Source": "ZamStats", "Province": "Copperbelt", "Prov_Code": 102, "District": "Lufwanyama", "Distr_Code": 102006, "LAT": -12.9980850502, "LONG": 27.8833204801, "Data_year": "2010" }, "geometry": { "type": "Point", "coordinates": [ 27.883320480056199, -12.998085050184899 ] } },
{ "type": "Feature", "properties": { "FID": 195, "GlobalID": "35LNF885659_002", "Type": "School", "SubType": "Basic School", "Name": "Lumanto Basic School", "Orig_Name": "lumanto bas sc", "Source": "ZamStats", "Province": "Copperbelt", "Prov_Code": 102, "District": "Lufwanyama", "Distr_Code": 102006, "LAT": -12.9706677598, "LONG": 27.816568089800001, "Data_year": "2010" }, "geometry": { "type": "Point", "coordinates": [ 27.8165680898455, -12.970667759809199 ] } },
{ "type": "Feature", "properties": { "FID": 196, "GlobalID": "35LNF995481_002", "Type": "School", "SubType": "Basic School", "Name": "Lumpuma Basic School", "Orig_Name": "lumpuma bas s", "Source": "ZamStats", "Province": "Copperbelt", "Prov_Code": 102, "District": "Lufwanyama", "Distr_Code": 102006, "LAT": -13.1312447401, "LONG": 27.918456749600001, "Data_year": "2010" }, "geometry": { "type": "Point", "coordinates": [ 27.918456749579398, -13.131244740052701 ] } },
{ "type": "Feature", "properties": { "FID": 197, "GlobalID": "35LNF989661_002", "Type": "School", "SubType": "Basic School", "Name": "Mibenge Basic School", "Orig_Name": "mibenge ba sch", "Source": "ZamStats", "Province": "Copperbelt", "Prov_Code": 102, "District": "Lufwanyama", "Distr_Code": 102006, "LAT": -12.96901443, "LONG": 27.91273911, "Data_year": "2010" }, "geometry": { "type": "Point", "coordinates": [ 27.912739110021999, -12.969014429971899 ] } },
{ "type": "Feature", "properties": { "FID": 198, "GlobalID": "35LNF812732_002", "Type": "School", "SubType": "School", "Name": "St claire School", "Orig_Name": "st claire sch", "Source": "ZamStats", "Province": "Copperbelt", "Prov_Code": 102, "District": "Lufwanyama", "Distr_Code": 102006, "LAT": -12.904955149599999, "LONG": 27.749045069699999, "Data_year": "2010" }, "geometry": { "type": "Point", "coordinates": [ 27.749045069674299, -12.9049551495605 ] } },
{ "type": "Feature", "properties": { "FID": 199, "GlobalID": "35LPG347087_002", "Type": "School Affiliated Infrastructure", "SubType": "Teachers Compound", "Name": "Teachers Compound", "Orig_Name": "tc bloc", "Source": "ZamStats", "Province": "Copperbelt", "Prov_Code": 102, "District": "Mufulira", "Distr_Code": 102009, "LAT": -12.581930010200001, "LONG": 28.240810740200001, "Data_year": "2010" }, "geometry": { "type": "Point", "coordinates": [ 28.240810740223498, -12.5819300101618 ] } },
{ "type": "Feature", "properties": { "FID": 200, "GlobalID": "35LNF994482_001", "Type": "School Affiliated Infrastructure", "SubType": "Teachers Compound", "Name": "Lumpuma Teachers Compound", "Orig_Name": "teacher houses", "Source": "ZamStats", "Province": "Copperbelt", "Prov_Code": 102, "District": "Lufwanyama", "Distr_Code": 102006, "LAT": -13.130487349899999, "LONG": 27.9176257598, "Data_year": "2010" }, "geometry": { "type": "Point", "coordinates": [ 27.917625759821, -13.130487349911199 ] } },
{ "type": "Feature", "properties": { "FID": 201, "GlobalID": "35LNF480787_002", "Type": "School", "SubType": "Basic School", "Name": "Fumbwe Basic School", "Orig_Name": "fumbwe basic", "Source": "ZamStats", "Province": "Copperbelt", "Prov_Code": 102, "District": "Lufwanyama", "Distr_Code": 102006, "LAT": -12.85634841, "LONG": 27.443265700400001, "Data_year": "2010" }, "geometry": { "type": "Point", "coordinates": [ 27.443265700351802, -12.856348409951099 ] } },
{ "type": "Feature", "properties": { "FID": 202, "GlobalID": "35LPF134640_001", "Type": "School", "SubType": "Community School", "Name": "Grizly Community School", "Orig_Name": "grizly com sch", "Source": "ZamStats", "Province": "Copperbelt", "Prov_Code": 102, "District": "Lufwanyama", "Distr_Code": 102006, "LAT": -12.9873506802, "LONG": 28.0464176503, "Data_year": "2010" }, "geometry": { "type": "Point", "coordinates": [ 28.046417650254401, -12.987350680189699 ] } },
{ "type": "Feature", "properties": { "FID": 203, "GlobalID": "35LNG597055_001", "Type": "School", "SubType": "Community School", "Name": "Joy Community School", "Orig_Name": "joy comm sch", "Source": "ZamStats", "Province": "Copperbelt", "Prov_Code": 102, "District": "Lufwanyama", "Distr_Code": 102006, "LAT": -12.613482430099999, "LONG": 27.549787029600001, "Data_year": "2010" }, "geometry": { "type": "Point", "coordinates": [ 27.5497870296477, -12.6134824300701 ] } },
{ "type": "Feature", "properties": { "FID": 204, "GlobalID": "35LNG515023_002", "Type": "School Affiliated Infrastructure", "SubType": "School Compound", "Name": "School Compound", "Orig_Name": "sch comp", "Source": "ZamStats", "Province": "Copperbelt", "Prov_Code": 102, "District": "Lufwanyama", "Distr_Code": 102006, "LAT": -12.6427853901, "LONG": 27.474526429699999, "Data_year": "2010" }, "geometry": { "type": "Point", "coordinates": [ 27.4745264296511, -12.6427853901336 ] } },
{ "type": "Feature", "properties": { "FID": 205, "GlobalID": "35LNF481786_002", "Type": "School Affiliated Infrastructure", "SubType": "Teachers Compound", "Name": "Fumbwe Teachers Compound", "Orig_Name": "teachers comp", "Source": "ZamStats", "Province": "Copperbelt", "Prov_Code": 102, "District": "Lufwanyama", "Distr_Code": 102006, "LAT": -12.856628779899999, "LONG": 27.443829470099999, "Data_year": "2010" }, "geometry": { "type": "Point", "coordinates": [ 27.443829470053998, -12.8566287798942 ] } },
{ "type": "Feature", "properties": { "FID": 206, "GlobalID": "35LPF134628_001", "Type": "School Affiliated Infrastructure", "SubType": "Teachers Compound", "Name": "Chantete Teachers Compound", "Orig_Name": "teachers quart", "Source": "ZamStats", "Province": "Copperbelt", "Prov_Code": 102, "District": "Lufwanyama", "Distr_Code": 102006, "LAT": -12.9984549404, "LONG": 28.04572145, "Data_year": "2010" }, "geometry": { "type": "Point", "coordinates": [ 28.045721449984999, -12.9984549404431 ] } },
{ "type": "Feature", "properties": { "FID": 207, "GlobalID": "35LPF238673_002", "Type": "School", "SubType": "Basic School", "Name": "Bulaya Basic School", "Orig_Name": "bulaya b sch", "Source": "ZamStats", "Province": "Copperbelt", "Prov_Code": 102, "District": "Lufwanyama", "Distr_Code": 102006, "LAT": -12.9570409696, "LONG": 28.1416144403, "Data_year": "2010" }, "geometry": { "type": "Point", "coordinates": [ 28.141614440254301, -12.957040969565099 ] } },
{ "type": "Feature", "properties": { "FID": 208, "GlobalID": "35LPF121704_002", "Type": "School", "SubType": "School", "Name": "Cmshalila School", "Orig_Name": "cmshalila sch", "Source": "ZamStats", "Province": "Copperbelt", "Prov_Code": 102, "District": "Lufwanyama", "Distr_Code": 102006, "LAT": -12.9296932498, "LONG": 28.033983600300001, "Data_year": "2010" }, "geometry": { "type": "Point", "coordinates": [ 28.033983600262999, -12.9296932498436 ] } },
{ "type": "Feature", "properties": { "FID": 209, "GlobalID": "35LPF132625_001", "Type": "School", "SubType": "Basic School", "Name": "Chantete Basic School", "Orig_Name": "chantete b sch", "Source": "ZamStats", "Province": "Copperbelt", "Prov_Code": 102, "District": "Lufwanyama", "Distr_Code": 102006, "LAT": -13.00066953, "LONG": 28.044666920200001, "Data_year": "2010" }, "geometry": { "type": "Point", "coordinates": [ 28.0446669202422, -13.0006695299748 ] } },
{ "type": "Feature", "properties": { "FID": 210, "GlobalID": "35LPF120704_001", "Type": "School Affiliated Infrastructure", "SubType": "Teachers Compound", "Name": "Cmshalila Teachers Compound", "Orig_Name": "teachers comp", "Source": "ZamStats", "Province": "Copperbelt", "Prov_Code": 102, "District": "Lufwanyama", "Distr_Code": 102006, "LAT": -12.929367189800001, "LONG": 28.03318279, "Data_year": "2010" }, "geometry": { "type": "Point", "coordinates": [ 28.033182789953901, -12.9293671898439 ] } },
{ "type": "Feature", "properties": { "FID": 211, "GlobalID": "35LNF346606_002", "Type": "School", "SubType": "School", "Name": "Kamuchanga School", "Orig_Name": "kamuchanga sch", "Source": "ZamStats", "Province": "Copperbelt", "Prov_Code": 102, "District": "Lufwanyama", "Distr_Code": 102006, "LAT": -13.0199776604, "LONG": 27.31955401, "Data_year": "2010" }, "geometry": { "type": "Point", "coordinates": [ 27.3195540100096, -13.019977660440601 ] } },
{ "type": "Feature", "properties": { "FID": 212, "GlobalID": "35LNF559710_001", "Type": "School Affiliated Infrastructure", "SubType": "Teachers Compound", "Name": "Kapilamikwa Teachers Compound", "Orig_Name": "teacher comp", "Source": "ZamStats", "Province": "Copperbelt", "Prov_Code": 102, "District": "Lufwanyama", "Distr_Code": 102006, "LAT": -12.9250228501, "LONG": 27.516128660100001, "Data_year": "2010" }, "geometry": { "type": "Point", "coordinates": [ 27.516128660109601, -12.9250228501244 ] } },
{ "type": "Feature", "properties": { "FID": 213, "GlobalID": "35LNF598638_001", "Type": "School Affiliated Infrastructure", "SubType": "Teachers Compound", "Name": "Bimbe Teachers Compound", "Orig_Name": "bimbe sch comp", "Source": "ZamStats", "Province": "Copperbelt", "Prov_Code": 102, "District": "Lufwanyama", "Distr_Code": 102006, "LAT": -12.9902438604, "LONG": 27.552071859800002, "Data_year": "2010" },